{
  "version": 0.6,
  "generator": "Overpass API 0.7.61.5 4133829e",
  "osm3s": {
    "timestamp_osm_base": "2023-11-08T20:15:03Z",
    "timestamp_areas_base": "2023-11-08T15:01:14Z",
    "copyright": "The data included in this document is from www.openstreetmap.org. The data is made available under ODbL."
  },
  "elements": [

{
  "type": "node",
  "id": 26863551,
  "lat": 41.7801446,
  "lon": 22.5070392,
  "tags": {
    "ele": "1754",
    "name": "Лисец",
    "name:en": "Lisec",
    "natural": "peak",
    "tourism": "attraction"
  }
},
{
  "type": "node",
  "id": 26864198,
  "lat": 41.0026621,
  "lon": 21.1831915,
  "tags": {
    "ele": "2601",
    "name": "Пелистер",
    "name:en": "Pelister",
    "natural": "peak",
    "prominence": "1511",
    "source:prominence": "2601-1090 (Col at A2 road)",
    "tourism": "attraction",
    "wikidata": "Q2008252"
  }
},
{
  "type": "node",
  "id": 172348137,
  "lat": 42.0057090,
  "lon": 21.4174425,
  "tags": {
    "contact:phone": "+38923117669",
    "fee": "yes",
    "name": "Природонаучен Музеј",
    "name:en": "Macedonian Museum of Natural History",
    "name:pl": "Muzeum Przyrodnicze",
    "name:tr": "Ulusal Tarih Müzesi",
    "opening_hours": "Tu-Su 09:00-16:00",
    "tourism": "museum",
    "wikidata": "Q20567394",
    "wikimedia_commons": "Category:Macedonian Museum of Natural History",
    "wikipedia": "mk:Природонаучен музеј на Македонија"
  }
},
{
  "type": "node",
  "id": 287224902,
  "lat": 40.8554756,
  "lon": 20.9824384,
  "tags": {
    "name": "Tripoint",
    "name:de": "Dreiländereck",
    "seamark:type": "buoy_special_purpose",
    "tourism": "attraction"
  }
},
{
  "type": "node",
  "id": 293664138,
  "lat": 40.9180425,
  "lon": 20.7718578,
  "tags": {
    "int_name": "Lubaništa",
    "name": "Љубаништа",
    "name:al": "Lubanisht",
    "name:de": "Lubaništa",
    "name:en": "Lubanishta",
    "name:fr": "Lubaništa",
    "name:lt": "Ljubaništa",
    "name:mk": "Љубаништа",
    "place": "village",
    "tourism": "attraction",
    "wikipedia": "en:Ljubaništa"
  }
},
{
  "type": "node",
  "id": 332042618,
  "lat": 42.0135469,
  "lon": 20.8869241,
  "tags": {
    "int_name": "Popova Sapka",
    "is_in": "Tetovo",
    "name": "Попова Шапка",
    "name:en": "Popova Shapka",
    "place": "locality",
    "tourism": "attraction"
  }
},
{
  "type": "node",
  "id": 332044751,
  "lat": 42.0151415,
  "lon": 20.8800993,
  "tags": {
    "alt_name": "Hotel Slavija",
    "name": "Славија",
    "name:en": "Slavija",
    "tourism": "hotel"
  }
},
{
  "type": "node",
  "id": 332044798,
  "lat": 42.0136748,
  "lon": 20.8804512,
  "tags": {
    "int_name": "Hotel Popova Sapka",
    "name": "Попова Шапка",
    "name:en": "Popova Shapka",
    "tourism": "hotel"
  }
},
{
  "type": "node",
  "id": 364069071,
  "lat": 41.6497078,
  "lon": 20.7356405,
  "tags": {
    "int_name": "Bistra",
    "name": "Бистра",
    "tourism": "hotel"
  }
},
{
  "type": "node",
  "id": 365840193,
  "lat": 41.9776318,
  "lon": 21.4209659,
  "tags": {
    "name": "Видиковец - Водно",
    "tourism": "viewpoint"
  }
},
{
  "type": "node",
  "id": 365840363,
  "lat": 41.9766582,
  "lon": 21.4087904,
  "tags": {
    "int_name": "Vodno",
    "name": "Хотел Водно",
    "name:en": "Vodno Hotel",
    "tourism": "hotel",
    "website": "http://hotelimakedonija.com.mk/mk/Hotel/57/Hotel-Vodno-Skopje"
  }
},
{
  "type": "node",
  "id": 367614267,
  "lat": 42.0004463,
  "lon": 21.4325380,
  "tags": {
    "name": "Видиковец „Скопско кале“",
    "tourism": "viewpoint"
  }
},
{
  "type": "node",
  "id": 373128988,
  "lat": 41.4440951,
  "lon": 22.0082491,
  "tags": {
    "created_by": "Potlatch 0.10f",
    "name": "Feni",
    "tourism": "hotel"
  }
},
{
  "type": "node",
  "id": 382635381,
  "lat": 41.4325212,
  "lon": 22.0228463,
  "tags": {
    "historic": "monument",
    "name": "Костурница",
    "name:en": "Kosturnica",
    "tourism": "attraction"
  }
},
{
  "type": "node",
  "id": 382635530,
  "lat": 41.4325993,
  "lon": 22.0227359,
  "tags": {
    "tourism": "viewpoint"
  }
},
{
  "type": "node",
  "id": 386800518,
  "lat": 41.4950992,
  "lon": 22.1008382,
  "tags": {
    "name": "Park",
    "tourism": "hotel"
  }
},
{
  "type": "node",
  "id": 390757429,
  "lat": 41.1148398,
  "lon": 20.7914149,
  "tags": {
    "tourism": "viewpoint"
  }
},
{
  "type": "node",
  "id": 410115784,
  "lat": 41.3377228,
  "lon": 21.2578980,
  "tags": {
    "historic": "monument",
    "int_name": "Mečkin Kamen",
    "name": "Мечкин Камен",
    "name:en": "Mechkin Kamen",
    "tourism": "attraction"
  }
},
{
  "type": "node",
  "id": 410335524,
  "lat": 41.9761668,
  "lon": 21.4358015,
  "tags": {
    "name": "Hotel Imperial",
    "stars": "3",
    "tourism": "hotel"
  }
},
{
  "type": "node",
  "id": 410335525,
  "lat": 41.9762321,
  "lon": 21.4362154,
  "tags": {
    "name": "Sun Hotel",
    "stars": "3",
    "tourism": "hotel"
  }
},
{
  "type": "node",
  "id": 412399303,
  "lat": 41.0178400,
  "lon": 20.8104255,
  "tags": {
    "int_name": "Peštani",
    "name": "Пештани",
    "name:en": "Peshtani",
    "name:lt": "Peštanis",
    "name:mk": "Пештани",
    "place": "village",
    "tourism": "attraction",
    "wikipedia": "mk:Пештани"
  }
},
{
  "type": "node",
  "id": 416452220,
  "lat": 41.9899482,
  "lon": 21.4198508,
  "tags": {
    "name": "Хотел 7",
    "name:en": "Hotel 7",
    "tourism": "hotel"
  }
},
{
  "type": "node",
  "id": 416452221,
  "lat": 42.0037446,
  "lon": 21.4244806,
  "tags": {
    "name": "Канет",
    "tourism": "hotel"
  }
},
{
  "type": "node",
  "id": 418904827,
  "lat": 41.9944128,
  "lon": 21.4063454,
  "tags": {
    "name": "Вук;Никем",
    "tourism": "hostel"
  }
},
{
  "type": "node",
  "id": 426994642,
  "lat": 41.4397684,
  "lon": 22.0103655,
  "tags": {
    "name": "UniPalas",
    "tourism": "hotel"
  }
},
{
  "type": "node",
  "id": 427007569,
  "lat": 41.3910101,
  "lon": 22.0391960,
  "tags": {
    "int_name": "Shemov",
    "name": "Шемов",
    "name:mk": "Шемов",
    "tourism": "motel"
  }
},
{
  "type": "node",
  "id": 443466196,
  "lat": 41.3510814,
  "lon": 21.2528049,
  "tags": {
    "tourism": "viewpoint"
  }
},
{
  "type": "node",
  "id": 444334991,
  "lat": 41.9188903,
  "lon": 22.4069917,
  "tags": {
    "historic": "monument",
    "int_name": "Spomenik na slobodata",
    "name": "Споменик на слободата",
    "name:en": "Monument of Freedom",
    "tourism": "attraction",
    "wikidata": "Q3402642",
    "wikipedia": "mk:Споменик на слободата (Кочани)"
  }
},
{
  "type": "node",
  "id": 445504108,
  "lat": 41.1716121,
  "lon": 20.7061975,
  "tags": {
    "name": "Hotel EUROTEL",
    "tourism": "hotel"
  }
},
{
  "type": "node",
  "id": 461663944,
  "lat": 41.4396276,
  "lon": 22.6418073,
  "tags": {
    "name": "Hotel Tiveriopol",
    "tourism": "hotel"
  }
},
{
  "type": "node",
  "id": 461664195,
  "lat": 41.4360150,
  "lon": 22.6431437,
  "tags": {
    "air_conditioning": "yes",
    "internet_access": "wlan",
    "name": "Хотел Илинден",
    "name:en": "Hotel Ilinden",
    "tourism": "hotel",
    "wheelchair": "no"
  }
},
{
  "type": "node",
  "id": 462151633,
  "lat": 41.4128709,
  "lon": 22.6517229,
  "tags": {
    "int_name": "Hotel Sirius",
    "name": "Хотел Сириус",
    "tourism": "hotel"
  }
},
{
  "type": "node",
  "id": 466248926,
  "lat": 42.0348398,
  "lon": 22.3557992,
  "tags": {
    "int_name": "Ponikva",
    "name": "Пониква",
    "name:en": "Ponikva",
    "place": "locality",
    "tourism": "attraction",
    "wikidata": "Q12291051",
    "wikipedia": "mk:Пониква"
  }
},
{
  "type": "node",
  "id": 466248928,
  "lat": 42.0347813,
  "lon": 22.3551848,
  "tags": {
    "name": "Хотел Изгрев",
    "tourism": "alpine_hut"
  }
},
{
  "type": "node",
  "id": 470409981,
  "lat": 42.0690911,
  "lon": 21.3001786,
  "tags": {
    "amenity": "place_of_worship",
    "building": "monastery",
    "denomination": "orthodox",
    "name": "Манастир Св. Ѓорѓија",
    "population": "0",
    "religion": "christian",
    "tourism": "attraction",
    "wikidata": "Q24084121",
    "wikipedia": "mk:Црква „Св. Ѓорѓи“ - Кучково"
  }
},
{
  "type": "node",
  "id": 470410033,
  "lat": 42.1847710,
  "lon": 21.1272790,
  "tags": {
    "alt_name": "Планинарски дом Љуботен",
    "ele": "1645",
    "name": "Љуботен",
    "name:bg": "хижа \"Люботрън\"",
    "name:en": "Ljuboten",
    "name:sr": "Планинарски дом Љуботен",
    "name:sr-Latn": "Planinarski dom Ljuboten",
    "operator": "ИГМ „Вратница“ - Вратница",
    "population": "0",
    "tourism": "alpine_hut",
    "wikidata": "Q50136317"
  }
},
{
  "type": "node",
  "id": 473903013,
  "lat": 42.2032723,
  "lon": 22.3350529,
  "tags": {
    "name": "Turist",
    "name:mk": "Турист",
    "stars": "2",
    "tourism": "hotel"
  }
},
{
  "type": "node",
  "id": 477199658,
  "lat": 42.0011146,
  "lon": 22.1759186,
  "tags": {
    "name": "Кај Зоки",
    "name:mk": "Кај Зоки",
    "tourism": "hotel"
  }
},
{
  "type": "node",
  "id": 478699817,
  "lat": 41.7077548,
  "lon": 22.8566138,
  "tags": {
    "name": "Музеј на град Берово",
    "name:en": "Berovo Town Museum",
    "tourism": "museum",
    "website": "http://www.berovo.gov.mk/index.php?option=com_content&view=article&id=76&Itemid=117"
  }
},
{
  "type": "node",
  "id": 487181669,
  "lat": 41.6849594,
  "lon": 21.8309270,
  "tags": {
    "name": "Македонија",
    "tourism": "hotel"
  }
},
{
  "type": "node",
  "id": 493900207,
  "lat": 40.9539377,
  "lon": 20.8125316,
  "tags": {
    "ele": "1570",
    "int_name": "Baba",
    "name": "Баба",
    "name:en": "Baba",
    "tourism": "viewpoint"
  }
},
{
  "type": "node",
  "id": 496160455,
  "lat": 41.1781482,
  "lon": 20.6785228,
  "tags": {
    "addr:city": "Струга",
    "addr:housenumber": "Kej 8-mi noemvri",
    "addr:postcode": "6330",
    "addr:street": "8. Ноември",
    "int_name": "Hotel BEOGRAD",
    "internet_access": "wlan",
    "internet_access:fee": "yes",
    "name": "Хотел Београд",
    "name:en": "Hotel Beograd",
    "stars": "3",
    "tourism": "hotel"
  }
},
{
  "type": "node",
  "id": 497549478,
  "lat": 41.7006280,
  "lon": 22.8587642,
  "tags": {
    "name": "Хотел Манастир",
    "name:en": "Manastir Hotel",
    "tourism": "hotel"
  }
},
{
  "type": "node",
  "id": 498771166,
  "lat": 41.9135160,
  "lon": 22.7381829,
  "tags": {
    "brand": "Gesloten",
    "int_name": "Odmaraliste Golak",
    "name": "Одмаралиште Голак",
    "name:en": "Resort Golak",
    "tourism": "hotel"
  }
},
{
  "type": "node",
  "id": 499130715,
  "lat": 41.6486816,
  "lon": 20.7352972,
  "tags": {
    "int_name": "Stopanska Banka",
    "name": "Стопанска Банка",
    "tourism": "hotel"
  }
},
{
  "type": "node",
  "id": 499130722,
  "lat": 41.6499002,
  "lon": 20.7390308,
  "tags": {
    "int_name": "Makpetrol",
    "name": "Макпетрол",
    "tourism": "hotel"
  }
},
{
  "type": "node",
  "id": 499932156,
  "lat": 41.7299403,
  "lon": 22.9420645,
  "tags": {
    "int_name": "Motel Idila",
    "name": "Мотел Идила",
    "name:en": "Motel Idila",
    "tourism": "motel"
  }
},
{
  "type": "node",
  "id": 499973497,
  "lat": 41.7010390,
  "lon": 22.8590180,
  "tags": {
    "amenity": "place_of_worship",
    "building": "yes",
    "denomination": "orthodox",
    "name": "Манастир Св. Архангел Михаил",
    "name:en": "Monastery",
    "religion": "christian",
    "tourism": "attraction"
  }
},
{
  "type": "node",
  "id": 526226418,
  "lat": 41.0788322,
  "lon": 20.8023400,
  "tags": {
    "int_name": "Hotel BELVEDERE",
    "name": "Hotel BELVEDERE",
    "name:en": "Hotel BELVEDERE",
    "tourism": "hotel"
  }
},
{
  "type": "node",
  "id": 529807304,
  "lat": 41.4348962,
  "lon": 22.0113989,
  "tags": {
    "name": "Balkan Tours",
    "tourism": "information"
  }
},
{
  "type": "node",
  "id": 529811458,
  "lat": 41.4343634,
  "lon": 22.0163228,
  "tags": {
    "name": "Музеј Галерија Кавадарци",
    "name:en": "Muzej Galerija Kavadarci",
    "tourism": "museum"
  }
},
{
  "type": "node",
  "id": 534925163,
  "lat": 41.1123610,
  "lon": 20.7961416,
  "tags": {
    "addr:housenumber": "62",
    "addr:street": "Цар Самоил",
    "building": "house",
    "int_name": "Robev Family House",
    "name": "Куќа на Робевци",
    "name:en": "Robev Family House",
    "name:fr": "Maison de la famille Robev — Musée archéologique de la ville",
    "name:tr": "Robevi Evi",
    "name:zh": "罗贝夫家族宅邸国家博物馆",
    "opening_hours": "Tu-Su 09:00-14:00",
    "tourism": "museum",
    "website": "http://muzejohrid.mk/en/house-of-robev-family"
  }
},
{
  "type": "node",
  "id": 548009371,
  "lat": 41.9651264,
  "lon": 21.3945115,
  "tags": {
    "name": "Милениумски Крст",
    "tourism": "viewpoint",
    "wheelchair": "no"
  }
},
{
  "type": "node",
  "id": 548009375,
  "lat": 41.9654096,
  "lon": 21.3950771,
  "tags": {
    "alt": "1060",
    "alt_name": "Планинарски Дом Даре Џамбаз",
    "capacity": "35",
    "disused:tourism": "alpine_hut",
    "name": "Планинарски дом „Даре Џамбаз“",
    "name:en": "Dare Dzhambaz",
    "operator": "ПСД „Бистра“ - Скопје",
    "tourism": "alpine_hut",
    "wikidata": "Q12909583"
  }
},
{
  "type": "node",
  "id": 551084708,
  "lat": 41.9756118,
  "lon": 21.4090971,
  "tags": {
    "tourism": "picnic_site"
  }
},
{
  "type": "node",
  "id": 774791899,
  "lat": 41.0896892,
  "lon": 21.0134146,
  "tags": {
    "addr:city": "Ресен",
    "name": "Китка",
    "tourism": "hotel"
  }
},
{
  "type": "node",
  "id": 842630157,
  "lat": 42.1055335,
  "lon": 22.0553053,
  "tags": {
    "int_name": "Stone dolls",
    "name": "Камени кукли",
    "name:en": "Stone town of Kuklica",
    "name:fr": "Kouklitsa",
    "name:pl": "Kamienne Lalki",
    "natural": "rocks",
    "tourism": "attraction",
    "wikidata": "Q3199264",
    "wikipedia": "mk:Камени Кукли"
  }
},
{
  "type": "node",
  "id": 842635213,
  "lat": 42.1824239,
  "lon": 22.1633104,
  "tags": {
    "int_name": "Ginovci",
    "name": "Гиновци",
    "name:mk": "Гиновци",
    "tourism": "picnic_site"
  }
},
{
  "type": "node",
  "id": 874492834,
  "lat": 41.4360595,
  "lon": 21.1938677,
  "tags": {
    "tourism": "alpine_hut"
  }
},
{
  "type": "node",
  "id": 874493225,
  "lat": 41.4362042,
  "lon": 21.1926768,
  "tags": {
    "tourism": "alpine_hut"
  }
},
{
  "type": "node",
  "id": 908273421,
  "lat": 41.9959035,
  "lon": 21.4314474,
  "tags": {
    "artist_name": "Валентина Стефановска",
    "artwork_type": "statue",
    "historic": "monument",
    "int_name": "Voin na Konj",
    "layer": "2",
    "memorial": "statue",
    "name": "Споменик на Александар Македонски",
    "name:en": "Statue of Alexander the Great",
    "start_date": "08.09.2011",
    "tourism": "artwork",
    "wikidata": "Q3497603",
    "wikimedia_commons": "Category:Warrior on Horseback (Skopje)",
    "wikipedia": "mk:Воин на коњ (Скопје)"
  }
},
{
  "type": "node",
  "id": 924623193,
  "lat": 41.6350875,
  "lon": 22.4677492,
  "tags": {
    "amenity": "place_of_worship",
    "int_name": "Sv.Trojca",
    "name": "Св.Тројца",
    "name:en": "Sv.Trojca",
    "religion": "christian",
    "tourism": "attraction"
  }
},
{
  "type": "node",
  "id": 959317641,
  "lat": 41.5924377,
  "lon": 20.6481197,
  "tags": {
    "internet_access": "wlan",
    "name": "Хотел НЕДА - Галичник",
    "name:de": "Hotel Neda - Galicnik",
    "tourism": "hotel",
    "website": "https://hotelneda.mk"
  }
},
{
  "type": "node",
  "id": 1234758726,
  "lat": 41.7107367,
  "lon": 22.8518197,
  "tags": {
    "name": "На Филип Кашчата",
    "tourism": "chalet"
  }
},
{
  "type": "node",
  "id": 1272898175,
  "lat": 41.8841902,
  "lon": 22.5049622,
  "tags": {
    "addr:housenumber": "1a",
    "name": "Museum Teracotta",
    "tourism": "museum"
  }
},
{
  "type": "node",
  "id": 1378197244,
  "lat": 41.9801920,
  "lon": 21.4401520,
  "tags": {
    "email": "info@orangeinn.com.mk",
    "name": "Hotel Orange Inn",
    "phone": "+38922772254",
    "tourism": "hotel",
    "website": "https://www.booking.com/hotel/mk/orange-inn.en-gb.html?sid=1ddd35f0ef4f22510d37f152a78ce4a3"
  }
},
{
  "type": "node",
  "id": 1381580746,
  "lat": 41.9842736,
  "lon": 21.4340308,
  "tags": {
    "name": "Хостел Хостел",
    "tourism": "hostel"
  }
},
{
  "type": "node",
  "id": 1381585163,
  "lat": 41.9849555,
  "lon": 21.4321318,
  "tags": {
    "addr:city": "Cкoпje",
    "addr:housenumber": "6",
    "addr:postcode": "1000",
    "addr:street": "Томе Арсовски",
    "name": "Сити Хостел",
    "name:en": "City Hostel",
    "phone": "+389 70 226 165",
    "tourism": "hostel"
  }
},
{
  "type": "node",
  "id": 1381642413,
  "lat": 41.9801123,
  "lon": 21.4249793,
  "tags": {
    "name": "Хотел Турена",
    "tourism": "hotel"
  }
},
{
  "type": "node",
  "id": 1381642430,
  "lat": 41.9843835,
  "lon": 21.4262323,
  "tags": {
    "addr:housenumber": "24",
    "addr:street": "Востаничка",
    "name": "Александар",
    "name:en": "Aleksandar",
    "tourism": "hotel"
  }
},
{
  "type": "node",
  "id": 1440469233,
  "lat": 41.1119117,
  "lon": 20.7944769,
  "tags": {
    "int_name": "Vila Albina",
    "name": "Вила Албина",
    "tourism": "guest_house"
  }
},
{
  "type": "node",
  "id": 1444764994,
  "lat": 41.0246942,
  "lon": 21.2059164,
  "tags": {
    "description": "Wooden Platform",
    "ele": "1936",
    "name": "Видиковец",
    "name:en": "Vidikovec (Viewpoint)",
    "tourism": "viewpoint"
  }
},
{
  "type": "node",
  "id": 1444764999,
  "lat": 41.0332126,
  "lon": 21.2193163,
  "tags": {
    "tourism": "picnic_site"
  }
},
{
  "type": "node",
  "id": 1444765000,
  "lat": 41.0231870,
  "lon": 21.2085900,
  "tags": {
    "tourism": "picnic_site"
  }
},
{
  "type": "node",
  "id": 1444835404,
  "lat": 41.0302031,
  "lon": 21.1924687,
  "tags": {
    "tourism": "picnic_site"
  }
},
{
  "type": "node",
  "id": 1445504654,
  "lat": 41.3887174,
  "lon": 21.5420496,
  "tags": {
    "tourism": "picnic_site"
  }
},
{
  "type": "node",
  "id": 1452854966,
  "lat": 41.5928611,
  "lon": 20.6409839,
  "tags": {
    "tourism": "viewpoint"
  }
},
{
  "type": "node",
  "id": 1452855031,
  "lat": 41.5923442,
  "lon": 20.6480979,
  "tags": {
    "hiking": "yes",
    "information": "guidepost",
    "tourism": "information"
  }
},
{
  "type": "node",
  "id": 1452855136,
  "lat": 41.6358851,
  "lon": 20.5610300,
  "tags": {
    "tourism": "picnic_site"
  }
},
{
  "type": "node",
  "id": 1452855153,
  "lat": 41.5898039,
  "lon": 20.6246531,
  "tags": {
    "email": "info@tutto.com.mk",
    "fax": "042 / 470 999",
    "int_name": "Hotel Tutto",
    "internet_access": "yes",
    "name": "Хотел Туто",
    "phone": "042 / 470 999",
    "tourism": "hotel",
    "website": "www.tutto.com.mk"
  }
},
{
  "type": "node",
  "id": 1452855181,
  "lat": 41.6266590,
  "lon": 20.5836230,
  "tags": {
    "tourism": "picnic_site"
  }
},
{
  "type": "node",
  "id": 1499057720,
  "lat": 41.9948912,
  "lon": 21.4329531,
  "tags": {
    "name": "Hotel City Central International",
    "source": "GPS",
    "tourism": "hotel"
  }
},
{
  "type": "node",
  "id": 1501849857,
  "lat": 41.1120923,
  "lon": 20.8059275,
  "tags": {
    "name": "De Lux Apartments Ohrid",
    "source": "Booking.com",
    "tourism": "apartment"
  }
},
{
  "type": "node",
  "id": 1506621062,
  "lat": 41.6407448,
  "lon": 21.4463252,
  "tags": {
    "tourism": "viewpoint"
  }
},
{
  "type": "node",
  "id": 1506625615,
  "lat": 41.6517445,
  "lon": 21.4530414,
  "tags": {
    "name": "Рибник Нежилово",
    "tourism": "motel"
  }
},
{
  "type": "node",
  "id": 1507082598,
  "lat": 41.0214101,
  "lon": 21.2228278,
  "tags": {
    "ele": "1744",
    "name": "Jorgov Kamen",
    "tourism": "viewpoint"
  }
},
{
  "type": "node",
  "id": 1507336821,
  "lat": 41.9716837,
  "lon": 22.4025821,
  "tags": {
    "tourism": "viewpoint"
  }
},
{
  "type": "node",
  "id": 1542347444,
  "lat": 41.8594296,
  "lon": 21.7382960,
  "tags": {
    "ele": "883",
    "name": "Црн Врв",
    "natural": "peak",
    "source": "Bing",
    "tourism": "viewpoint"
  }
},
{
  "type": "node",
  "id": 1577485214,
  "lat": 42.0055458,
  "lon": 21.3755273,
  "tags": {
    "alt_name": "Hotel Mramor",
    "name": "Мрамор",
    "name:en": "Mramor",
    "tourism": "hotel"
  }
},
{
  "type": "node",
  "id": 1668655322,
  "lat": 42.0193935,
  "lon": 20.9602621,
  "tags": {
    "tourism": "viewpoint"
  }
},
{
  "type": "node",
  "id": 1786613380,
  "lat": 41.0330959,
  "lon": 21.2190362,
  "tags": {
    "abandoned": "yes",
    "alt_name": "Планинарски Дом Копанки",
    "alt_name:en": "Planinarski Dom Kopanki",
    "ele": "1554",
    "int_name": "Kopanki",
    "name": "Копанки",
    "name:en": "Kopanki",
    "operator": "ПД „Пелистер“ - Битола",
    "source": "user knowledge",
    "tourism": "alpine_hut"
  }
},
{
  "type": "node",
  "id": 1790311354,
  "lat": 41.3767150,
  "lon": 22.8125854,
  "tags": {
    "tourism": "viewpoint"
  }
},
{
  "type": "node",
  "id": 1790358584,
  "lat": 41.3790695,
  "lon": 22.7986590,
  "tags": {
    "tourism": "motel"
  }
},
{
  "type": "node",
  "id": 1791473966,
  "lat": 41.3828291,
  "lon": 22.7552453,
  "tags": {
    "tourism": "hotel"
  }
},
{
  "type": "node",
  "id": 1791481260,
  "lat": 41.4402160,
  "lon": 22.7045516,
  "tags": {
    "tourism": "motel"
  }
},
{
  "type": "node",
  "id": 1791534907,
  "lat": 41.3817021,
  "lon": 22.7531478,
  "tags": {
    "tourism": "hotel"
  }
},
{
  "type": "node",
  "id": 1791598048,
  "lat": 41.2516373,
  "lon": 22.7378095,
  "tags": {
    "tourism": "hostel"
  }
},
{
  "type": "node",
  "id": 1791598051,
  "lat": 41.2403357,
  "lon": 22.7177144,
  "tags": {
    "tourism": "chalet"
  }
},
{
  "type": "node",
  "id": 1791598057,
  "lat": 41.1725653,
  "lon": 22.7420313,
  "tags": {
    "amenity": "casino",
    "int_name": "Hit Casino",
    "name": "Казино Хит",
    "name:en": "Hit Casino",
    "tourism": "hotel"
  }
},
{
  "type": "node",
  "id": 1791598060,
  "lat": 41.2409569,
  "lon": 22.7161909,
  "tags": {
    "tourism": "caravan_site"
  }
},
{
  "type": "node",
  "id": 1793089695,
  "lat": 41.0396643,
  "lon": 21.2209179,
  "tags": {
    "information": "office",
    "tourism": "information"
  }
},
{
  "type": "node",
  "id": 1804963726,
  "lat": 40.9140062,
  "lon": 20.7410763,
  "tags": {
    "int_name": "Hotel complex Saint Naum",
    "name": "Хотелски комплекс „Свети Наум“",
    "tourism": "hotel"
  }
},
{
  "type": "node",
  "id": 1804963753,
  "lat": 40.9131005,
  "lon": 20.7415162,
  "tags": {
    "amenity": "place_of_worship",
    "building": "church",
    "denomination": "orthodox",
    "name": "Црква Света Петка",
    "name:en": "Saint Petka Church",
    "religion": "christian",
    "tourism": "attraction"
  }
},
{
  "type": "node",
  "id": 1810974666,
  "lat": 40.9270314,
  "lon": 21.1842413,
  "tags": {
    "information": "board",
    "tourism": "information"
  }
},
{
  "type": "node",
  "id": 1812296549,
  "lat": 40.9299992,
  "lon": 21.0846302,
  "tags": {
    "name": "Hotel MVR",
    "source": "Bing",
    "tourism": "hotel"
  }
},
{
  "type": "node",
  "id": 1831180502,
  "lat": 41.9505936,
  "lon": 21.2991931,
  "tags": {
    "amenity": "place_of_worship",
    "denomination": "orthodox",
    "historic": "monument",
    "int_name": "Manastir Sv. Andrej",
    "name": "Манастир Св. Андреј",
    "name:en": "Monastery St. Andrej",
    "name:pl": "Cerkiew św. Andrzeja",
    "name:tr": "Monastery St. Andrej",
    "place_of_worship:type": "monastery",
    "religion": "christian",
    "tourism": "attraction"
  }
},
{
  "type": "node",
  "id": 1831180525,
  "lat": 41.9503368,
  "lon": 21.2991809,
  "tags": {
    "int_name": "Kanjon Matka",
    "name": "Кањон Матка",
    "tourism": "hotel"
  }
},
{
  "type": "node",
  "id": 1831247821,
  "lat": 41.9518330,
  "lon": 21.3042042,
  "tags": {
    "amenity": "place_of_worship",
    "denomination": "orthodox",
    "int_name": "Sv. Nikola",
    "name": "Св. Никола",
    "place_of_worship:type": "monastery",
    "religion": "christian",
    "tourism": "attraction"
  }
},
{
  "type": "node",
  "id": 1853704787,
  "lat": 41.1871817,
  "lon": 22.7221034,
  "tags": {
    "name": "Музеј на Дојран",
    "tourism": "museum"
  }
},
{
  "type": "node",
  "id": 1859114111,
  "lat": 41.9984602,
  "lon": 21.4349949,
  "tags": {
    "artwork_type": "statue",
    "historic": "memorial",
    "image": "https://upload.wikimedia.org/wikipedia/commons/d/d2/Philip_II_of_Macedon_monument_in_Skopje.JPG",
    "inscription": "Филип II Македонски",
    "memorial": "statue",
    "name": "Филип II Македонски",
    "name:de": "Philipp II. (Makedonien)",
    "name:en": "Philip II of Macedon",
    "name:pl": "Filip II Macedoński",
    "subject:wikidata": "Q130650",
    "subject:wikipedia": "mk:Филип II Македонски",
    "tourism": "artwork"
  }
},
{
  "type": "node",
  "id": 1866944575,
  "lat": 41.9983057,
  "lon": 21.4254968,
  "tags": {
    "artwork_type": "statue",
    "historic": "memorial",
    "inscription": "Св. Климент Охридски",
    "int_name": "Sv. Kliment Ohridski",
    "memorial": "statue",
    "name": "Св. Климент Охридски",
    "name:en": "Clement of Ohrid",
    "tourism": "artwork",
    "wikidata": "Q158504",
    "wikipedia": "mk:Свети Климент Охридски"
  }
},
{
  "type": "node",
  "id": 1867151652,
  "lat": 41.9993163,
  "lon": 21.4371620,
  "tags": {
    "artwork_type": "statue",
    "historic": "memorial",
    "inscription": "Скендербег",
    "memorial": "statue",
    "name": "Скендербег",
    "name:de": "Skanderbeg",
    "name:en": "Skanderbeg",
    "name:sq": "Skënderbeu",
    "tourism": "artwork",
    "wikidata": "Q12289741",
    "wikimedia_commons": "Category:Skenderbeg Monument (Skopje)",
    "wikipedia": "en:Skanderbeg"
  }
},
{
  "type": "node",
  "id": 1868879920,
  "lat": 41.9770490,
  "lon": 21.3747577,
  "tags": {
    "name": "Св. Пантелејмон",
    "tourism": "viewpoint"
  }
},
{
  "type": "node",
  "id": 1872779042,
  "lat": 41.6767336,
  "lon": 22.8968070,
  "tags": {
    "name": "Вила Вакане",
    "source": "Bing",
    "tourism": "guest_house"
  }
},
{
  "type": "node",
  "id": 1872779050,
  "lat": 41.6774869,
  "lon": 22.8963993,
  "tags": {
    "int_name": "Vila Fidanski",
    "name": "Вила Фидански",
    "source": "Bing",
    "tourism": "guest_house"
  }
},
{
  "type": "node",
  "id": 1872779051,
  "lat": 41.6783964,
  "lon": 22.8934220,
  "tags": {
    "int_name": "Vila Nesho",
    "name": "Вила Нешо",
    "source": "Bing",
    "tourism": "guest_house"
  }
},
{
  "type": "node",
  "id": 1872779055,
  "lat": 41.6730814,
  "lon": 22.9094697,
  "tags": {
    "int_name": "Bistra",
    "name": "Бистра",
    "source": "Bing",
    "tourism": "motel"
  }
},
{
  "type": "node",
  "id": 1874196865,
  "lat": 42.0367674,
  "lon": 22.3530578,
  "tags": {
    "name": "Осоговски Бисер",
    "tourism": "hotel"
  }
},
{
  "type": "node",
  "id": 1879078048,
  "lat": 41.9288003,
  "lon": 21.5227000,
  "tags": {
    "name": "Три Круши",
    "place": "locality",
    "tourism": "viewpoint"
  }
},
{
  "type": "node",
  "id": 1879436069,
  "lat": 42.1706665,
  "lon": 21.8098380,
  "tags": {
    "historic": "archaeological_site",
    "historic:civilization": "prehistoric",
    "name": "Костоперска Карпа",
    "tourism": "attraction",
    "wikidata": "Q20570399",
    "wikipedia": "mk:Костоперска Карпа"
  }
},
{
  "type": "node",
  "id": 1879461479,
  "lat": 42.2633818,
  "lon": 21.9531180,
  "tags": {
    "archaeological_site": "megalith",
    "historic": "archaeological_site",
    "historic:period": "Bronze Age",
    "name": "Кокино",
    "name:mk": "Кокино",
    "tourism": "attraction",
    "wikidata": "Q1326977",
    "wikipedia": "mk:Кокино (локалитет)"
  }
},
{
  "type": "node",
  "id": 1880656140,
  "lat": 41.9966896,
  "lon": 21.5496030,
  "tags": {
    "int_name": "Bellevue",
    "name": "Белви",
    "tourism": "caravan_site"
  }
},
{
  "type": "node",
  "id": 1909982080,
  "lat": 41.5901499,
  "lon": 21.4712294,
  "tags": {
    "int_name": "Dzidan Most",
    "name": "Ѕидан Мост",
    "name:en": "Dzidan Most",
    "source": "Bing",
    "tourism": "motel"
  }
},
{
  "type": "node",
  "id": 1909993554,
  "lat": 41.6798004,
  "lon": 21.5522332,
  "tags": {
    "tourism": "hotel"
  }
},
{
  "type": "node",
  "id": 1911159138,
  "lat": 41.1904280,
  "lon": 22.2825627,
  "tags": {
    "int_name": "Smrdliva Voda",
    "name": "Смрдлива Вода",
    "place": "locality",
    "tourism": "yes",
    "wikidata": "Q22088931"
  }
},
{
  "type": "node",
  "id": 1911952052,
  "lat": 41.1800487,
  "lon": 22.1996948,
  "tags": {
    "int_name": "Ski Centar Kožuf",
    "landuse": "piste",
    "leisure": "sports_centre",
    "name": "Ски Центар Кожуф",
    "name:en": "Ski Resort Kozuf",
    "sport": "skiing",
    "tourism": "attraction"
  }
},
{
  "type": "node",
  "id": 1911952154,
  "lat": 41.1772393,
  "lon": 22.2012151,
  "tags": {
    "tourism": "information"
  }
},
{
  "type": "node",
  "id": 1916474196,
  "lat": 41.3659468,
  "lon": 22.8995124,
  "tags": {
    "height": "39.5",
    "int_name": "Smolarski Vodopadi",
    "name": "Смоларски Водопади",
    "name:en": "Smolare Falls",
    "tourism": "attraction"
  }
},
{
  "type": "node",
  "id": 1916491348,
  "lat": 41.3693502,
  "lon": 22.8069508,
  "tags": {
    "int_name": "Kolešinski vodopad",
    "name": "Колешински водопад",
    "name:en": "Koleshino Falls",
    "tourism": "attraction",
    "waterway": "waterfall",
    "wikidata": "Q2940856",
    "wikipedia": "mk:Колешински водопад"
  }
},
{
  "type": "node",
  "id": 1920245399,
  "lat": 42.1820228,
  "lon": 22.1635034,
  "tags": {
    "tourism": "zoo"
  }
},
{
  "type": "node",
  "id": 1951109709,
  "lat": 41.9673209,
  "lon": 22.3101180,
  "tags": {
    "name": "Пантелеј",
    "tourism": "picnic_site"
  }
},
{
  "type": "node",
  "id": 1951175744,
  "lat": 41.9372016,
  "lon": 22.3728601,
  "tags": {
    "int_name": "Kaj Dabo",
    "name": "Кај Дабо",
    "name:en": "Kaj Dabo",
    "tourism": "picnic_site"
  }
},
{
  "type": "node",
  "id": 1964169959,
  "lat": 41.8328148,
  "lon": 22.2356592,
  "tags": {
    "int_name": "Vago 2",
    "name": "Ваго 2",
    "name:en": "Vago 2",
    "tourism": "motel"
  }
},
{
  "type": "node",
  "id": 1969642814,
  "lat": 41.6151033,
  "lon": 21.2205568,
  "tags": {
    "int_name": "Izvor",
    "name": "Извор",
    "name:en": "Izvor",
    "tourism": "motel"
  }
},
{
  "type": "node",
  "id": 1969643201,
  "lat": 41.5411002,
  "lon": 21.2443132,
  "tags": {
    "email": "pesnamotel@yahoo.com",
    "int_name": "Pešna",
    "name": "Пешна",
    "name:en": "Peshna",
    "phone:1": "+389 75 44 64 10",
    "phone:2": "+389 76 432 432",
    "tourism": "motel",
    "website": "www.pesnamotel.com.mk"
  }
},
{
  "type": "node",
  "id": 1979530424,
  "lat": 42.0720620,
  "lon": 21.8074776,
  "tags": {
    "int_name": "Zeleno",
    "name": "Зелено",
    "tourism": "picnic_site"
  }
},
{
  "type": "node",
  "id": 1999950866,
  "lat": 41.4085959,
  "lon": 22.2447656,
  "tags": {
    "name": "Museum of Wine",
    "name:mk": "Музеј на Биното",
    "tourism": "museum"
  }
},
{
  "type": "node",
  "id": 1999950873,
  "lat": 41.4092678,
  "lon": 22.2438643,
  "tags": {
    "internet_access": "wlan",
    "internet_access:fee": "no",
    "name": "Lovec",
    "name:mk": "Ловец",
    "tourism": "hotel"
  }
},
{
  "type": "node",
  "id": 1999950882,
  "lat": 41.4092416,
  "lon": 22.2444356,
  "tags": {
    "tourism": "information"
  }
},
{
  "type": "node",
  "id": 1999960679,
  "lat": 41.4066304,
  "lon": 22.2459833,
  "tags": {
    "capacity": "44",
    "name": "Калабастер",
    "name:en": "Kalabaster",
    "operator": "ФПСМ - СКА",
    "tourism": "alpine_hut"
  }
},
{
  "type": "node",
  "id": 2024605291,
  "lat": 42.2782511,
  "lon": 21.8500367,
  "tags": {
    "historic": "memorial",
    "int_name": "Memorijalen centar ASNOM",
    "memorial": "war_memorial",
    "name": "Меморијален центар АСНОМ",
    "name:en": "Memorial Center ASNOM",
    "tourism": "attraction"
  }
},
{
  "type": "node",
  "id": 2024605293,
  "lat": 42.2888675,
  "lon": 22.0459031,
  "tags": {
    "alpine_hut": "disused",
    "name": "Длабочица",
    "tourism": "alpine_hut"
  }
},
{
  "type": "node",
  "id": 2026807108,
  "lat": 41.8289199,
  "lon": 21.6864385,
  "tags": {
    "amenity": "place_of_worship",
    "denomination": "orthodox",
    "name": "Manastir Sveta Bogorodica",
    "name:mk": "Манастир Св. Богородица",
    "religion": "christian",
    "tourism": "attraction"
  }
},
{
  "type": "node",
  "id": 2051112580,
  "lat": 41.1026685,
  "lon": 20.8148154,
  "tags": {
    "name": "Билјанини Извори",
    "name:en": "Biljana's Springs",
    "natural": "spring",
    "tourism": "attraction"
  }
},
{
  "type": "node",
  "id": 2051418481,
  "lat": 40.9964111,
  "lon": 20.7972907,
  "tags": {
    "name": "Roman Camp Ruins",
    "name:mk": "Римскa тврдина",
    "tourism": "attraction"
  }
},
{
  "type": "node",
  "id": 2051449779,
  "lat": 40.9942972,
  "lon": 20.7983138,
  "tags": {
    "name": "Bay of Bones Museum",
    "tourism": "attraction",
    "website": "http://muzejohrid.mk/en/bay-of-bones-ohrid"
  }
},
{
  "type": "node",
  "id": 2051569337,
  "lat": 41.0738678,
  "lon": 20.8043628,
  "tags": {
    "amenity": "place_of_worship",
    "denomination": "orthodox",
    "int_name": "Sv. Stefan",
    "name": "Св. Стефан",
    "name:en": "St. Stephen",
    "name:lt": "Šv. Stefanas",
    "natural": "cave_entrance",
    "religion": "christian",
    "tourism": "attraction",
    "wikidata": "Q12293256",
    "wikipedia": "mk:Црква „Св. Стефан“ - Панцир"
  }
},
{
  "type": "node",
  "id": 2123629166,
  "lat": 41.7961877,
  "lon": 20.9106476,
  "tags": {
    "name": "hotel",
    "tourism": "hotel"
  }
},
{
  "type": "node",
  "id": 2125981870,
  "lat": 42.0612669,
  "lon": 21.4436433,
  "tags": {
    "addr:housename": "Stojanovski Palace",
    "addr:housenumber": "43",
    "addr:street": "Radisanski pat levo",
    "name": "Stojanovski Palace",
    "tourism": "guest_house"
  }
},
{
  "type": "node",
  "id": 2250324509,
  "lat": 42.0775831,
  "lon": 21.6997303,
  "tags": {
    "int_name": "Hotel Milano",
    "name": "Хотел Милано",
    "name:en": "Hotel Milano",
    "tourism": "hotel"
  }
},
{
  "type": "node",
  "id": 2279507279,
  "lat": 41.1805738,
  "lon": 20.6776078,
  "tags": {
    "name": "Д-р Никола Незлобински",
    "tourism": "museum"
  }
},
{
  "type": "node",
  "id": 2284578750,
  "lat": 41.6493265,
  "lon": 20.7372366,
  "tags": {
    "int_name": "Campari",
    "name": "Кампари",
    "tourism": "hotel"
  }
},
{
  "type": "node",
  "id": 2293315268,
  "lat": 41.9941717,
  "lon": 21.4068121,
  "tags": {
    "name": "Hotel Kapistec",
    "source": "GPS",
    "tourism": "hotel"
  }
},
{
  "type": "node",
  "id": 2316032879,
  "lat": 41.0769862,
  "lon": 20.8030131,
  "tags": {
    "name": "Хотел на МВР",
    "tourism": "hotel"
  }
},
{
  "type": "node",
  "id": 2316032888,
  "lat": 41.0764625,
  "lon": 20.8034074,
  "tags": {
    "name": "Хотел Пела",
    "tourism": "hotel"
  }
},
{
  "type": "node",
  "id": 2318244495,
  "lat": 41.9824332,
  "lon": 21.4347873,
  "tags": {
    "addr:housenumber": "47",
    "addr:street": "Tome Arsovski",
    "int_name": "Kastelo",
    "name": "Кастело",
    "name:en": "Kastelo",
    "phone": "+389 70 631 832",
    "tourism": "hostel",
    "website": "https://hostelkalonis.wordpress.com/"
  }
},
{
  "type": "node",
  "id": 2320935246,
  "lat": 41.0761894,
  "lon": 20.8017461,
  "tags": {
    "tourism": "motel"
  }
},
{
  "type": "node",
  "id": 2320935254,
  "lat": 41.0769232,
  "lon": 20.8012661,
  "tags": {
    "name": "Villa Swiss",
    "tourism": "motel"
  }
},
{
  "type": "node",
  "id": 2320935264,
  "lat": 41.0769557,
  "lon": 20.8014110,
  "tags": {
    "name": "Villa Drama",
    "tourism": "motel"
  }
},
{
  "type": "node",
  "id": 2320935275,
  "lat": 41.0774733,
  "lon": 20.8025642,
  "tags": {
    "tourism": "hotel"
  }
},
{
  "type": "node",
  "id": 2323236969,
  "lat": 41.1423016,
  "lon": 22.5090711,
  "tags": {
    "tourism": "museum"
  }
},
{
  "type": "node",
  "id": 2323236970,
  "lat": 41.1401281,
  "lon": 22.5026606,
  "tags": {
    "artwork_type": "statue",
    "tourism": "artwork"
  }
},
{
  "type": "node",
  "id": 2323236971,
  "lat": 41.1414679,
  "lon": 22.5042089,
  "tags": {
    "internet_access": "wlan",
    "internet_access:fee": "no",
    "name": "Ашикот",
    "name:en": "Asikot",
    "tourism": "hotel"
  }
},
{
  "type": "node",
  "id": 2323236974,
  "lat": 41.1390111,
  "lon": 22.5015368,
  "tags": {
    "tourism": "information"
  }
},
{
  "type": "node",
  "id": 2323236975,
  "lat": 41.1405889,
  "lon": 22.5048372,
  "tags": {
    "addr:city": "Гевгелија",
    "addr:housenumber": "110",
    "addr:street": "Маршал Тито",
    "email": "holidayhan@yahoo.com",
    "name": "Holiday Han",
    "phone": "+389 34 611 593",
    "tourism": "hotel",
    "website": "http://holidayhan.com/"
  }
},
{
  "type": "node",
  "id": 2359124380,
  "lat": 41.5126479,
  "lon": 20.9514110,
  "tags": {
    "gauge": "600",
    "historic": "locomotive",
    "name": "99.4-053",
    "tourism": "attraction"
  }
},
{
  "type": "node",
  "id": 2373710718,
  "lat": 42.0836218,
  "lon": 21.9862589,
  "tags": {
    "historic": "archaeological_site",
    "int_name": "Cocev Kamen",
    "name": "Цоцев Камен",
    "name:en": "Cocev Kamen",
    "place": "locality",
    "tourism": "attraction",
    "wikidata": "Q599269"
  }
},
{
  "type": "node",
  "id": 2377917960,
  "lat": 41.5323961,
  "lon": 20.5772167,
  "tags": {
    "int_name": "Hotel Kosovrasti",
    "name": "Хотел Косоврасти",
    "name:en": "Hotel Kosovrasti",
    "tourism": "hotel"
  }
},
{
  "type": "node",
  "id": 2377969104,
  "lat": 41.1056203,
  "lon": 20.8078617,
  "tags": {
    "tourism": "picnic_site"
  }
},
{
  "type": "node",
  "id": 2377969125,
  "lat": 41.1056951,
  "lon": 20.8075801,
  "tags": {
    "tourism": "picnic_site"
  }
},
{
  "type": "node",
  "id": 2377969279,
  "lat": 41.1056053,
  "lon": 20.8082706,
  "tags": {
    "name": "HOTEL GARDEN",
    "tourism": "hotel"
  }
},
{
  "type": "node",
  "id": 2382428597,
  "lat": 41.9230708,
  "lon": 20.9445463,
  "tags": {
    "int_name": "Neptun Petrol",
    "name": "Нептун Петрол",
    "name:en": "Neptun Petrol",
    "tourism": "hotel"
  }
},
{
  "type": "node",
  "id": 2407057399,
  "lat": 41.4368416,
  "lon": 22.6379904,
  "tags": {
    "name": "Хотел Централ",
    "tourism": "hotel"
  }
},
{
  "type": "node",
  "id": 2411245239,
  "lat": 41.1719876,
  "lon": 22.4904618,
  "tags": {
    "int_name": "Hotel Jasen",
    "internet_access": "wlan",
    "is_in": "Негорски Бањи",
    "name": "Хотел Јасен",
    "name:en": "Hotel Jasen",
    "opening_hours": "24/7",
    "phone": "0038934231174",
    "tourism": "hotel"
  }
},
{
  "type": "node",
  "id": 2411308943,
  "lat": 41.1581681,
  "lon": 22.4943084,
  "tags": {
    "int_name": "Hotel Nar",
    "name": "Хотел Нар",
    "name:en": "Hotel Nar",
    "tourism": "hotel"
  }
},
{
  "type": "node",
  "id": 2411429061,
  "lat": 41.8286581,
  "lon": 21.6894737,
  "tags": {
    "amenity": "place_of_worship",
    "denomination": "orthodox",
    "name": "Manastir Sveti Jovan",
    "name:mk": "Св. Јован Крстител",
    "religion": "christian",
    "tourism": "attraction"
  }
},
{
  "type": "node",
  "id": 2437861439,
  "lat": 40.9652710,
  "lon": 20.8113113,
  "tags": {
    "int_name": "Koritski Rigde",
    "name": "Коритски Рид",
    "name:en": "Koritski Rigde",
    "tourism": "viewpoint"
  }
},
{
  "type": "node",
  "id": 2437861604,
  "lat": 40.9756451,
  "lon": 20.9130921,
  "tags": {
    "tourism": "camp_site"
  }
},
{
  "type": "node",
  "id": 2442534239,
  "lat": 41.9750289,
  "lon": 21.4084650,
  "tags": {
    "board_type": "nature",
    "information": "board",
    "tourism": "information"
  }
},
{
  "type": "node",
  "id": 2501564485,
  "lat": 41.1698560,
  "lon": 20.7104350,
  "tags": {
    "addr:city": "Struga",
    "addr:country": "MK",
    "addr:housename": "Villa Enhalon",
    "addr:housenumber": "86",
    "addr:postcode": "6330",
    "addr:street": "Ezerski Lozja",
    "capacity:rooms": "24",
    "contact:email": "info@enhalon.com.mk",
    "contact:phone": "+389 71 30 50 13",
    "description": "Animal friendly, Children's playground, Private Beach, Refrigerator, TV, Toilets in rooms",
    "email": "albert_hani@yahoo.com",
    "facebook": "https://www.facebook.com/Enhalon",
    "fax": "+389 46 780233",
    "fixme": "please clean up tags",
    "internet_access": "yes",
    "internet_access:fee": "yes",
    "name": "Vila ENHALON",
    "phone": "070243534",
    "tourism": "hotel",
    "website": "http://www.tcmc.org.mk/Enhalon.html"
  }
},
{
  "type": "node",
  "id": 2503292107,
  "lat": 41.1202504,
  "lon": 20.7992249,
  "tags": {
    "name": "Apartmani Joce",
    "source": "survey",
    "tourism": "guest_house"
  }
},
{
  "type": "node",
  "id": 2503310639,
  "lat": 41.0448534,
  "lon": 20.8052032,
  "tags": {
    "name": "Robinson Sunset House",
    "tourism": "hostel"
  }
},
{
  "type": "node",
  "id": 2535153634,
  "lat": 41.4184594,
  "lon": 22.0181317,
  "tags": {
    "name": "Спомен куќа на Страшо Пинџур",
    "name:de": "Gedenkstätte Haus - Strascho Pindjur",
    "name:en": "Memorial house - Strasho Pindjur",
    "tourism": "museum"
  }
},
{
  "type": "node",
  "id": 2545330643,
  "lat": 40.9856694,
  "lon": 20.9208605,
  "tags": {
    "addr:street": "Otesevo, Resen",
    "email": "contact@lakeviewotesevo.com",
    "name": "Lake View",
    "phone": "047551195",
    "tourism": "hotel",
    "website": "https://www.lakeviewotesevo.com/"
  }
},
{
  "type": "node",
  "id": 2578029313,
  "lat": 42.2020133,
  "lon": 22.3348959,
  "tags": {
    "addr:city": "Kriva Palanka",
    "addr:postcode": "1330",
    "addr:street": "Sveti Joakim Osogovski",
    "name": "City Museum",
    "tourism": "museum"
  }
},
{
  "type": "node",
  "id": 2590602216,
  "lat": 41.7913532,
  "lon": 20.5465802,
  "tags": {
    "alt_name": "Mali i Korabit",
    "ele": "2764",
    "name": "Maja e Korabit - Голем Кораб",
    "name:bg": "Голем кораб",
    "name:cs": "Velký Korab",
    "name:el": "Όρος Κοράμπ",
    "name:en": "Mount Korab",
    "name:mk": "Голем Кораб",
    "name:sq": "Maja e Korabit",
    "name:sr": "Кораб",
    "natural": "peak",
    "prominence": "2164",
    "source:prominence": "2764-600 (Godovič)",
    "tourism": "viewpoint",
    "wikidata": "Q912579",
    "wikipedia": "en:Mount Korab"
  }
},
{
  "type": "node",
  "id": 2613864910,
  "lat": 41.0265620,
  "lon": 21.3295834,
  "tags": {
    "internet_access": "wlan",
    "internet_access:fee": "no",
    "name": "Guesthouse",
    "tourism": "guest_house",
    "wheelchair": "no"
  }
},
{
  "type": "node",
  "id": 2614590053,
  "lat": 41.1126572,
  "lon": 20.7969076,
  "tags": {
    "addr:city": "Ohrid",
    "addr:housename": "Villa Mal Sveti Kliment",
    "addr:housenumber": "10",
    "addr:postcode": "6000",
    "addr:street": "Metodi Patce",
    "guest_house": "bed_and_breakfast",
    "int_name": "Villa Mal Sveti Kliment",
    "name": "Вила Мал Свети Климент",
    "payment:litecoin": "yes",
    "phone": "+389 46250655",
    "tourism": "guest_house",
    "website": "https://vilamalsvetikliment.com/"
  }
},
{
  "type": "node",
  "id": 2618005128,
  "lat": 41.0507831,
  "lon": 20.8138454,
  "tags": {
    "ele": "1085",
    "information": "guidepost",
    "note": "H-5, H-6",
    "ref": "P-64",
    "tourism": "information"
  }
},
{
  "type": "node",
  "id": 2618005456,
  "lat": 41.0763417,
  "lon": 20.8464720,
  "tags": {
    "ele": "1495",
    "information": "guidepost",
    "ref": "P-19",
    "tourism": "information"
  }
},
{
  "type": "node",
  "id": 2618005461,
  "lat": 41.0763953,
  "lon": 20.8411451,
  "tags": {
    "height": "1330",
    "information": "guidepost",
    "int_name": "Spring Gorni Studenec",
    "name": "Извор Горни Студенец",
    "ref": "P-20",
    "tourism": "information"
  }
},
{
  "type": "node",
  "id": 2618050038,
  "lat": 41.0815669,
  "lon": 20.8300697,
  "tags": {
    "height": "1137",
    "information": "guidepost",
    "ref": "P-21",
    "tourism": "information"
  }
},
{
  "type": "node",
  "id": 2670729336,
  "lat": 41.4377107,
  "lon": 22.6372913,
  "tags": {
    "name": "404",
    "tourism": "motel"
  }
},
{
  "type": "node",
  "id": 2759245083,
  "lat": 41.1126936,
  "lon": 20.7995376,
  "tags": {
    "artwork_type": "statue",
    "historic": "monument",
    "int_name": "Saint Klement of Ohrid",
    "name": "Свети Климент Охридски",
    "name:en": "Monument St. Clement Ohridski",
    "name:fr": "Saint Clément d’Ohrid",
    "name:tr": "Aziz Kliment Anıtı",
    "tourism": "artwork",
    "wikidata": "Q158504",
    "wikipedia": "mk:Свети Климент Охридски"
  }
},
{
  "type": "node",
  "id": 2759253188,
  "lat": 41.1120476,
  "lon": 20.7999940,
  "tags": {
    "artwork_type": "statue",
    "historic": "monument",
    "int_name": "Saints Cyril and Methodius",
    "name": "Свети Кирил и Методиј",
    "name:en": "Monuments of Saints Cyril and Methodius",
    "name:fr": "Saints Cyrille et Méthode",
    "name:mk": "Saints Cyril and Methodius",
    "name:tr": "Aziz Kiril ve Aziz Metodius Anıtı",
    "tourism": "artwork",
    "wikidata": "Q239925",
    "wikipedia": "mk:Св. Кирил и Методиј"
  }
},
{
  "type": "node",
  "id": 2759263738,
  "lat": 41.1122955,
  "lon": 20.7990226,
  "tags": {
    "artwork_type": "statue",
    "historic": "monument",
    "int_name": "Saint Naum",
    "name": "Свети Наум Охридски Чудотворец",
    "name:en": "Monument to St. Naum of Ohrid",
    "name:fr": "Saint Naum",
    "name:tr": "Aziz Naum Anıtı",
    "tourism": "artwork",
    "wikidata": "Q350061",
    "wikipedia": "mk:Свети Наум Охридски Чудотворец"
  }
},
{
  "type": "node",
  "id": 2795145637,
  "lat": 41.1113877,
  "lon": 20.7887867,
  "tags": {
    "tourism": "viewpoint"
  }
},
{
  "type": "node",
  "id": 2818900165,
  "lat": 41.1035813,
  "lon": 20.8520030,
  "tags": {
    "fixme": "Is really here a viewpoint? A viewpoint as a raised hand-made wooden platform is 500 m to the east (due to GPS data).",
    "tourism": "viewpoint"
  }
},
{
  "type": "node",
  "id": 2835970547,
  "lat": 42.1356110,
  "lon": 21.7224017,
  "tags": {
    "addr:city": "Куманово",
    "addr:street": "Иво Лола Рибар",
    "name": "Apartman",
    "phone": "078-277-048",
    "tourism": "hotel",
    "website": "https://www.pazar3.mk/mk/Listing/AdDetail/Index/1148323-LUKSUZNO-OPREMENI-STANOVI-APARTMANI"
  }
},
{
  "type": "node",
  "id": 2978030295,
  "lat": 41.1703339,
  "lon": 20.7095372,
  "tags": {
    "addr:city": "Struga",
    "addr:postcode": "6330",
    "addr:street": "Ezerski Lozja",
    "name": "Villa Rosa",
    "phone": "+389 70 92 08 08",
    "tourism": "hotel",
    "wheelchair": "no"
  }
},
{
  "type": "node",
  "id": 2984088703,
  "lat": 41.0678423,
  "lon": 20.8016787,
  "tags": {
    "amenity": "restaurant",
    "internet_access": "wlan",
    "internet_access:fee": "no",
    "name": "Prestol",
    "opening_hours": "07:00-21:00",
    "phone": "+389 46277858",
    "source": "survey",
    "stars": "3",
    "tourism": "hotel",
    "website": "http://www.hotelprestol.com"
  }
},
{
  "type": "node",
  "id": 2992064333,
  "lat": 41.0666434,
  "lon": 20.8009009,
  "tags": {
    "amenity": "restaurant",
    "email": "reservation@hotelgranit.com.mk",
    "fax": "+389 46207141",
    "internet_access": "wlan",
    "internet_access:fee": "no",
    "name": "Granit",
    "phone": "+389 46207100",
    "stars": "4",
    "tourism": "hotel",
    "website": "https://www.hotelgranit.com.mk/"
  }
},
{
  "type": "node",
  "id": 3011061682,
  "lat": 41.0272161,
  "lon": 20.8655541,
  "tags": {
    "ele": "1462",
    "information": "guidepost",
    "mtb": "yes",
    "name": "Asan Djura",
    "tourism": "information"
  }
},
{
  "type": "node",
  "id": 3011061683,
  "lat": 41.0461961,
  "lon": 20.8392189,
  "tags": {
    "description": "Map of Galicica National Park with all the hiking and mtb routes and table with their length",
    "hiking": "yes",
    "information": "map",
    "map_size": "region",
    "map_type": "topo",
    "mtb": "yes",
    "name": "Galicica National Park - Chereshnana",
    "tourism": "information"
  }
},
{
  "type": "node",
  "id": 3011061685,
  "lat": 41.0526085,
  "lon": 20.8126026,
  "tags": {
    "description": "Map of Galicica National Park with all the hiking and mtb routes and table with their length",
    "hiking": "yes",
    "information": "map",
    "map_size": "region",
    "map_type": "topo",
    "mtb": "yes",
    "name": "Galicica National Park - Konjsko",
    "tourism": "information"
  }
},
{
  "type": "node",
  "id": 3011061686,
  "lat": 41.0764159,
  "lon": 20.8029453,
  "tags": {
    "description": "Map of Galicica National Park with all the hiking and mtb routes and table with their length",
    "hiking": "yes",
    "information": "map",
    "map_size": "region",
    "map_type": "topo",
    "mtb": "yes",
    "name": "Galicica National Park",
    "tourism": "information"
  }
},
{
  "type": "node",
  "id": 3011061687,
  "lat": 41.0265726,
  "lon": 20.8458828,
  "tags": {
    "ele": "1457",
    "hiking": "yes",
    "information": "guidepost",
    "name": "Samotska Dupka Cave",
    "note": "H-7",
    "ref": "P-31",
    "tourism": "information"
  }
},
{
  "type": "node",
  "id": 3011061688,
  "lat": 41.0765177,
  "lon": 20.8029045,
  "tags": {
    "description": "Map of Galicica National Park with some information about Shipokno and St. Stephan",
    "hiking": "yes",
    "information": "map",
    "map_size": "region",
    "map_type": "topo",
    "mtb": "yes",
    "name": "Shipokno/St. Stephan",
    "tourism": "information"
  }
},
{
  "type": "node",
  "id": 3011061690,
  "lat": 41.0596796,
  "lon": 20.8135106,
  "tags": {
    "denomination": "orthodox",
    "historic": "wayside_shrine",
    "name": "Sv. Nikola",
    "religion": "christian",
    "tourism": "attraction"
  }
},
{
  "type": "node",
  "id": 3011061699,
  "lat": 41.0265537,
  "lon": 20.8459251,
  "tags": {
    "hiking": "yes",
    "information": "guidepost",
    "tourism": "information"
  }
},
{
  "type": "node",
  "id": 3011061702,
  "lat": 41.0266633,
  "lon": 20.8468635,
  "tags": {
    "hiking": "yes",
    "information": "guidepost",
    "tourism": "information"
  }
},
{
  "type": "node",
  "id": 3011061711,
  "lat": 41.0271651,
  "lon": 20.8433870,
  "tags": {
    "ele": "1419",
    "hiking": "yes",
    "information": "guidepost",
    "note": "T-4, H-7",
    "ref": "P-32",
    "tourism": "information"
  }
},
{
  "type": "node",
  "id": 3011061728,
  "lat": 41.0277379,
  "lon": 20.8552134,
  "tags": {
    "hiking": "yes",
    "information": "guidepost",
    "tourism": "information"
  }
},
{
  "type": "node",
  "id": 3011065633,
  "lat": 41.0278524,
  "lon": 20.8656871,
  "tags": {
    "ele": "1463",
    "hiking": "yes",
    "information": "guidepost",
    "note": "G-4",
    "ref": "P-28",
    "tourism": "information"
  }
},
{
  "type": "node",
  "id": 3011065643,
  "lat": 41.0281558,
  "lon": 20.8620585,
  "tags": {
    "hiking": "yes",
    "information": "guidepost",
    "tourism": "information"
  }
},
{
  "type": "node",
  "id": 3011065649,
  "lat": 41.0283259,
  "lon": 20.8490300,
  "tags": {
    "hiking": "yes",
    "information": "guidepost",
    "tourism": "information"
  }
},
{
  "type": "node",
  "id": 3011065664,
  "lat": 41.0297707,
  "lon": 20.8522231,
  "tags": {
    "ele": "1477",
    "hiking": "yes",
    "information": "guidepost",
    "note": "H-6, H-7",
    "ref": "P-30",
    "tourism": "information"
  }
},
{
  "type": "node",
  "id": 3011065697,
  "lat": 41.0459783,
  "lon": 20.8407279,
  "tags": {
    "hiking": "yes",
    "information": "guidepost",
    "note": "H-6, H-4, G-2; guidepost destroyed - signs on the ground with proper directions.",
    "tourism": "information"
  }
},
{
  "type": "node",
  "id": 3011065698,
  "lat": 41.0462678,
  "lon": 20.8391827,
  "tags": {
    "ele": "1364",
    "hiking": "yes",
    "information": "guidepost",
    "note": "H-6, T-4",
    "ref": "P-39",
    "tourism": "information"
  }
},
{
  "type": "node",
  "id": 3011065699,
  "lat": 41.0467921,
  "lon": 20.8388375,
  "tags": {
    "ele": "1377",
    "hiking": "yes",
    "information": "guidepost",
    "note": "H-6, T-4",
    "ref": "P-40",
    "tourism": "information"
  }
},
{
  "type": "node",
  "id": 3011065700,
  "lat": 41.0505598,
  "lon": 20.8136974,
  "tags": {
    "ele": "1085",
    "hiking": "yes",
    "information": "guidepost",
    "note": "H-5",
    "ref": "P-65",
    "tourism": "information"
  }
},
{
  "type": "node",
  "id": 3011065702,
  "lat": 41.0591473,
  "lon": 20.8058473,
  "tags": {
    "ele": "815",
    "information": "guidepost",
    "mtb": "yes",
    "note": "MTB-4, MTB-5",
    "ref": "P-67",
    "tourism": "information"
  }
},
{
  "type": "node",
  "id": 3011065703,
  "lat": 41.0596931,
  "lon": 20.8133735,
  "tags": {
    "ele": "1042",
    "information": "guidepost",
    "mtb": "yes",
    "note": "MTB-4, MTB-5",
    "ref": "P-66",
    "tourism": "information"
  }
},
{
  "type": "node",
  "id": 3011065965,
  "lat": 41.0722893,
  "lon": 20.8074989,
  "tags": {
    "ele": "824",
    "hiking": "yes",
    "information": "guidepost",
    "note": "H-3",
    "ref": "P-54",
    "tourism": "information"
  }
},
{
  "type": "node",
  "id": 3011065975,
  "lat": 41.0729279,
  "lon": 20.8072824,
  "tags": {
    "ele": "824",
    "hiking": "yes",
    "information": "guidepost",
    "note": "H-3",
    "ref": "P-57",
    "tourism": "information"
  }
},
{
  "type": "node",
  "id": 3011065996,
  "lat": 41.0732296,
  "lon": 20.8113919,
  "tags": {
    "ele": "906",
    "hiking": "yes",
    "information": "guidepost",
    "mtb": "yes",
    "note": "H-3, MTB-4",
    "ref": "P-52",
    "tourism": "information"
  }
},
{
  "type": "node",
  "id": 3011066015,
  "lat": 41.0736319,
  "lon": 20.8110514,
  "tags": {
    "ele": "898",
    "hiking": "yes",
    "information": "guidepost",
    "mtb": "yes",
    "note": "H-3, MTB-4",
    "ref": "P-53",
    "tourism": "information"
  }
},
{
  "type": "node",
  "id": 3011066018,
  "lat": 41.0738363,
  "lon": 20.8076650,
  "tags": {
    "ele": "824",
    "information": "guidepost",
    "mtb": "yes",
    "note": "MTB-5",
    "ref": "P-55",
    "tourism": "information"
  }
},
{
  "type": "node",
  "id": 3011066243,
  "lat": 41.0752215,
  "lon": 20.8049886,
  "tags": {
    "ele": "779",
    "hiking": "yes",
    "information": "guidepost",
    "note": "just an arrow to Sv. Stefan Manastir, but with standard head board with ref number and information about m.a.s.l. and GPS coordinates",
    "ref": "P-59",
    "tourism": "information"
  }
},
{
  "type": "node",
  "id": 3011066254,
  "lat": 41.0772877,
  "lon": 20.8097802,
  "tags": {
    "ele": "870",
    "hiking": "yes",
    "information": "guidepost",
    "mtb": "yes",
    "note": "MTB-4, MTB-5",
    "ref": "P-56",
    "tourism": "information"
  }
},
{
  "type": "node",
  "id": 3014170649,
  "lat": 41.8038352,
  "lon": 20.8020471,
  "tags": {
    "ele": "1330",
    "name": "Шарски Води",
    "tourism": "alpine_hut"
  }
},
{
  "type": "node",
  "id": 3026939348,
  "lat": 41.5360592,
  "lon": 20.6962131,
  "tags": {
    "tourism": "hotel"
  }
},
{
  "type": "node",
  "id": 3026939355,
  "lat": 41.6108242,
  "lon": 20.5989347,
  "tags": {
    "tourism": "hostel"
  }
},
{
  "type": "node",
  "id": 3046111413,
  "lat": 41.0310731,
  "lon": 21.2644333,
  "tags": {
    "addr:city": "Дихово",
    "name": "Villa Dihovo",
    "note": "Guest decides how much he likes to pay! (Only alcohol has fixed price!)",
    "operator": "Pece Cvetkovski",
    "phone": "+389 47 293040",
    "tourism": "guest_house",
    "website": "http://www.villadihovo.com"
  }
},
{
  "type": "node",
  "id": 3046112441,
  "lat": 41.0298294,
  "lon": 21.3324955,
  "tags": {
    "addr:housenumber": "15",
    "addr:street": "С. Лумбарко",
    "name": "Goldy Hostel Bitola",
    "tourism": "hostel"
  }
},
{
  "type": "node",
  "id": 3076974521,
  "lat": 41.1142940,
  "lon": 20.7991300,
  "tags": {
    "addr:housenumber": "32",
    "addr:street": "Klimentov Univerzitet",
    "name": "Apartments Stars",
    "tourism": "guest_house"
  }
},
{
  "type": "node",
  "id": 3076974522,
  "lat": 41.1129419,
  "lon": 20.7988751,
  "tags": {
    "name": "Hostel di Angollo",
    "tourism": "hostel"
  }
},
{
  "type": "node",
  "id": 3076999334,
  "lat": 41.0276578,
  "lon": 21.3372648,
  "tags": {
    "name": "Tokin House",
    "tourism": "hotel",
    "website": "www.tokin-house.com"
  }
},
{
  "type": "node",
  "id": 3089857461,
  "lat": 42.1452710,
  "lon": 21.7225477,
  "tags": {
    "artist:wikidata": "Q3502919",
    "artwork_type": "sculpture",
    "name": "Македонка",
    "tourism": "artwork"
  }
},
{
  "type": "node",
  "id": 3100113826,
  "lat": 41.1130555,
  "lon": 20.8016699,
  "tags": {
    "name": "DJ Apartments",
    "tourism": "guest_house"
  }
},
{
  "type": "node",
  "id": 3103123140,
  "lat": 42.1534515,
  "lon": 21.7301573,
  "tags": {
    "name": "Сателит",
    "name:en": "Satelit",
    "tourism": "hotel"
  }
},
{
  "type": "node",
  "id": 3157074744,
  "lat": 41.9613080,
  "lon": 21.2928640,
  "tags": {
    "name": "Matka canyon viewpoint near golden cross",
    "tourism": "viewpoint"
  }
},
{
  "type": "node",
  "id": 3263433907,
  "lat": 41.4748537,
  "lon": 22.5651714,
  "tags": {
    "amenity": "place_of_worship",
    "denomination": "orthodox",
    "name": "Манастир Св. Богородица Елеуса",
    "name:en": "Monastery of the Mother of God Eleusa",
    "religion": "christian",
    "tourism": "attraction"
  }
},
{
  "type": "node",
  "id": 3263474161,
  "lat": 41.4505759,
  "lon": 22.5902413,
  "tags": {
    "amenity": "place_of_worship",
    "denomination": "orthodox",
    "name": "Манастир Св. Леонтиј",
    "name:en": "St. Leontius Monastery",
    "religion": "christian",
    "tourism": "attraction"
  }
},
{
  "type": "node",
  "id": 3297076133,
  "lat": 41.9921961,
  "lon": 21.4208286,
  "tags": {
    "name": "Rezidencija Ancevski",
    "tourism": "guest_house"
  }
},
{
  "type": "node",
  "id": 3341289751,
  "lat": 41.9952955,
  "lon": 21.4315713,
  "tags": {
    "addr:city": "Скопје",
    "addr:postcode": "1000",
    "addr:street": "Плоштад Македонија",
    "int_name": "Pelister Hotel",
    "name": "Пелистер",
    "tourism": "hotel",
    "website": "https://www.pelisterhotel.com.mk/"
  }
},
{
  "type": "node",
  "id": 3361174898,
  "lat": 41.9994486,
  "lon": 21.4380987,
  "tags": {
    "addr:city": "Скопје",
    "addr:city:en": "Skopje",
    "addr:country": "MK",
    "addr:housenumber": "5",
    "addr:postcode": "1000",
    "addr:street": "Булевар Гоце Делчев",
    "addr:street:en": "Bulevar Goce Delčev",
    "email": "info@hoteldekoka.mk",
    "internet_access": "wlan",
    "internet_access:fee": "yes",
    "name": "Hotel De KOKA",
    "operator": "Hotel De KOKA",
    "payment:american_express": "yes",
    "payment:cards": "yes",
    "payment:cash": "yes",
    "payment:debit_cards": "yes",
    "payment:maestro": "yes",
    "payment:visa": "yes",
    "payment:visa_debit": "yes",
    "payment:visa_electron": "yes",
    "phone": "+389 2 311 2200",
    "rooms": "36",
    "smoking": "separated",
    "stars": "3",
    "tourism": "hotel",
    "website": "https://www.hoteldekoka.mk/"
  }
},
{
  "type": "node",
  "id": 3409074127,
  "lat": 41.3464763,
  "lon": 21.5529446,
  "tags": {
    "artwork_type": "bust",
    "name": "Народен херој Мице Козароски-Јандре",
    "name:en": "People's hero Mice Kozaroski-Jandre",
    "name:mk": "Народен херој Мице Козароски-Јандре",
    "tourism": "artwork"
  }
},
{
  "type": "node",
  "id": 3457036857,
  "lat": 41.0223734,
  "lon": 21.3410777,
  "tags": {
    "addr:city": "Bitola",
    "addr:street": "Никола Тесла",
    "name": "Domestika Hostel",
    "operator": "Ivo Lola Ribar",
    "phone": "+389 47 230 715",
    "tourism": "hostel",
    "website": "http://hostel-domestika-bitola.eu/"
  }
},
{
  "type": "node",
  "id": 3503986198,
  "lat": 41.9730949,
  "lon": 21.3759732,
  "tags": {
    "tourism": "viewpoint"
  }
},
{
  "type": "node",
  "id": 3635690640,
  "lat": 41.3325976,
  "lon": 21.5550545,
  "tags": {
    "email": "contact@hotelsalida.com.mk",
    "int_name": "Salida",
    "name": "Салида",
    "name:en": "Salida",
    "phone": "+389 (0) 48 400 333",
    "tourism": "hotel",
    "website": "https://www.hotelsalida.com.mk/"
  }
},
{
  "type": "node",
  "id": 3637338312,
  "lat": 41.9984102,
  "lon": 21.3924091,
  "tags": {
    "addr:city": "Cкoпje",
    "addr:country": "MK",
    "addr:housenumber": "19",
    "addr:postcode": "1000",
    "addr:street": "Лондонска",
    "addr:street:en": "Londonska",
    "email": "contact@okhotel.mk",
    "internet_access": "wlan",
    "internet_access:fee": "no",
    "name": "ОК Хотел",
    "name:en": "OK Hotel",
    "phone": "+389 2 3067067",
    "tourism": "hotel",
    "website": "http://www.okhotel.mk/"
  }
},
{
  "type": "node",
  "id": 3639421034,
  "lat": 41.6639916,
  "lon": 21.4285926,
  "tags": {
    "alt_name": "Чеплес",
    "facebook": "https://www.facebook.com/PlaninarskiDomCeples2013?rf=797496093598937",
    "internet_access": "no",
    "name": "Чеплес",
    "name:en": "Cheples",
    "operator": "ПСК „Солунска глава“ - Велес",
    "phone": "+389 78 449 002",
    "tourism": "alpine_hut",
    "wikidata": "Q12909591",
    "wikipedia": "mk:Планинарски дом „Чеплез“"
  }
},
{
  "type": "node",
  "id": 3642683410,
  "lat": 41.1108779,
  "lon": 20.8038545,
  "tags": {
    "name": "Апартмани Симоноски",
    "tourism": "guest_house"
  }
},
{
  "type": "node",
  "id": 3649017967,
  "lat": 41.7592274,
  "lon": 22.4169890,
  "tags": {
    "capacity": "40",
    "ele": "1107",
    "name": "Вртешка",
    "name:en": "Vrteshka",
    "operator": "ДПС „Лисец“ - Штип",
    "reservation": "yes",
    "tourism": "alpine_hut"
  }
},
{
  "type": "node",
  "id": 3649158213,
  "lat": 41.6760151,
  "lon": 21.3049471,
  "tags": {
    "name": "Горна Белица",
    "name:en": "Gorna Belica",
    "operator": " СД „Пеони“ - Скопје",
    "tourism": "alpine_hut"
  }
},
{
  "type": "node",
  "id": 3649158793,
  "lat": 41.2864493,
  "lon": 22.3256456,
  "tags": {
    "capacity": "40",
    "name": "Висока Чука",
    "name:en": "Visoka Chuka",
    "operator": "ПД „Миравци“ - Миравци",
    "tourism": "alpine_hut"
  }
},
{
  "type": "node",
  "id": 3649181784,
  "lat": 41.3925662,
  "lon": 22.1073625,
  "tags": {
    "capacity": "30",
    "ele": "400",
    "name": "Горни Дисан",
    "name:en": "Gorni Disan",
    "operator": " ДПС „Просек“ - Неготино",
    "tourism": "alpine_hut"
  }
},
{
  "type": "node",
  "id": 3649231445,
  "lat": 41.9273661,
  "lon": 21.7667290,
  "tags": {
    "capacity": "30",
    "name": "Дивље",
    "name:en": "Divlje",
    "operator": "ПОК „Кумановче“ - Скопје",
    "tourism": "alpine_hut"
  }
},
{
  "type": "node",
  "id": 3650382601,
  "lat": 41.3495265,
  "lon": 22.1960327,
  "tags": {
    "capacity": "40",
    "ele": "600",
    "name": "Драчевица",
    "operator": "ПД „Просек“ - Неготино",
    "tourism": "alpine_hut"
  }
},
{
  "type": "node",
  "id": 3650680677,
  "lat": 41.7916949,
  "lon": 21.4236661,
  "tags": {
    "internet_access": "no",
    "name": "Караџица",
    "name:en": "Karadzhica",
    "operator": "ПД „Драчево“ - Скопје",
    "phone": "+389 71 522 444",
    "tourism": "alpine_hut",
    "website": "https://www.facebook.com/%D0%9F%D0%BB%D0%B0%D0%BD%D0%B8%D0%BD%D0%B0%D1%80%D1%81%D0%BA%D0%B8-%D0%B4%D0%BE%D0%BC-%D0%9A%D0%B0%D1%80%D0%B0%D1%9F%D0%B8%D1%86%D0%B0-Mountain-house-Karadzica-181888685230484/",
    "wikidata": "Q12909585",
    "wikipedia": "mk:Планинарски дом „Караџица“"
  }
},
{
  "type": "node",
  "id": 3650721180,
  "lat": 42.0163552,
  "lon": 20.8793778,
  "tags": {
    "capacity": "12",
    "name": "Љуботен",
    "name:en": "Ljuboten",
    "operator": "ПК „Љуботен“ - Тетово",
    "reservation": "yes",
    "tourism": "alpine_hut",
    "website": "http://www.pkljuboten.org.mk/index.php?option=com_content&view=article&id=85&Itemid=59"
  }
},
{
  "type": "node",
  "id": 3650751556,
  "lat": 41.9502430,
  "lon": 21.2992157,
  "tags": {
    "alt_name": "Планинарски Дома Матка",
    "capacity": "200",
    "name": "Матка",
    "operator": "СД „Пеони“ - Скопје",
    "tourism": "alpine_hut",
    "wikidata": "Q15409333"
  }
},
{
  "type": "node",
  "id": 3650767204,
  "lat": 42.2845023,
  "lon": 21.9277519,
  "tags": {
    "capacity": "18",
    "name": "Молотино",
    "operator": "ПД „Козјак“ - Куманово",
    "tourism": "alpine_hut"
  }
},
{
  "type": "node",
  "id": 3650809063,
  "lat": 41.5495205,
  "lon": 21.5042671,
  "tags": {
    "name": "Мокрени",
    "tourism": "alpine_hut"
  }
},
{
  "type": "node",
  "id": 3664552047,
  "lat": 41.2101825,
  "lon": 21.9969073,
  "tags": {
    "capacity": "35",
    "name": "Мрежичко",
    "operator": " ПД „Орле“ - Кавадарци",
    "tourism": "alpine_hut"
  }
},
{
  "type": "node",
  "id": 3664575460,
  "lat": 40.9915726,
  "lon": 21.2813186,
  "tags": {
    "capacity": "48",
    "ele": "1440",
    "int_name": "Neolica",
    "name": "Неолица",
    "name:en": "Neolica",
    "operator": " ПД „Ѓорѓи Наумов“ - Битола",
    "tourism": "alpine_hut"
  }
},
{
  "type": "node",
  "id": 3664591841,
  "lat": 41.6416345,
  "lon": 21.4387051,
  "tags": {
    "capacity": "30",
    "ele": "1000",
    "int_name": "Papradište",
    "name": "Папрадиште",
    "name:en": "Papradishte",
    "operator": "„Green power“ - Велес",
    "tourism": "alpine_hut",
    "wikidata": "Q56255071"
  }
},
{
  "type": "node",
  "id": 3664658438,
  "lat": 41.6236949,
  "lon": 22.3157246,
  "tags": {
    "capacity": "12",
    "name": "Плоча",
    "operator": " АК „Плоча“ - Радовиш.",
    "tourism": "alpine_hut"
  }
},
{
  "type": "node",
  "id": 3668341495,
  "lat": 42.2466736,
  "lon": 22.0031897,
  "tags": {
    "capacity": "22",
    "name": "Појак Калман",
    "name:en": "Pojak Kalman",
    "operator": "ГПД „Козјак“ - Куманово",
    "tourism": "alpine_hut"
  }
},
{
  "type": "node",
  "id": 3668398298,
  "lat": 40.9721849,
  "lon": 21.6407994,
  "tags": {
    "capacity": "40",
    "name": "Скочивир",
    "operator": " ПД „18 Август“ - Скопје",
    "tourism": "alpine_hut"
  }
},
{
  "type": "node",
  "id": 3668572971,
  "lat": 41.9748842,
  "lon": 21.4092236,
  "tags": {
    "name": "Скопје 63",
    "operator": "ПД „Скопје 63“ - Скопје",
    "tourism": "alpine_hut"
  }
},
{
  "type": "node",
  "id": 3668857493,
  "lat": 42.0158843,
  "lon": 20.8778624,
  "tags": {
    "capacity": "80",
    "name": "Смрека",
    "name:en": "Smreka",
    "operator": "Д „Трансверзалец“ - Скопје",
    "tourism": "alpine_hut"
  }
},
{
  "type": "node",
  "id": 3668883558,
  "lat": 41.0904700,
  "lon": 21.7354404,
  "tags": {
    "alt_name": "Медикус",
    "capacity": "15",
    "name": "Старавина",
    "operator": "ПСД „Медикус“ - Битола",
    "tourism": "alpine_hut"
  }
},
{
  "type": "node",
  "id": 3669906379,
  "lat": 41.6511623,
  "lon": 20.8775370,
  "tags": {
    "capacity": "40",
    "name": "Tajmište",
    "operator": "ПК „Работнички-Китка“ - Скопје.",
    "tourism": "alpine_hut"
  }
},
{
  "type": "node",
  "id": 3669966813,
  "lat": 41.5816794,
  "lon": 21.1876474,
  "tags": {
    "int_name": "Ursus Speleos",
    "name": "Урсус спелеос",
    "name:en": "Usus Speleos",
    "operator": "ИД „Урсус спелеос“ - Скопје",
    "operator:en": "Ursus Speleos Exploration Society",
    "tourism": "alpine_hut",
    "website": "https://ursusspeleos.com.mk/"
  }
},
{
  "type": "node",
  "id": 3671888432,
  "lat": 42.0112140,
  "lon": 20.8821046,
  "tags": {
    "alt_name": "Шара ски",
    "capacity": "24",
    "name": "Конак",
    "operator": "ДПС „Шара ски“ - Тетово",
    "tourism": "alpine_hut"
  }
},
{
  "type": "node",
  "id": 3671954146,
  "lat": 41.3562648,
  "lon": 22.8828432,
  "tags": {
    "capacity": "26",
    "name": "Шарена Чешма",
    "operator": "ПАОК „Ентузијаст“ - Струмица",
    "tourism": "alpine_hut"
  }
},
{
  "type": "node",
  "id": 3673044667,
  "lat": 41.9956170,
  "lon": 21.4303313,
  "tags": {
    "name": "Square",
    "tourism": "hotel"
  }
},
{
  "type": "node",
  "id": 3687057112,
  "lat": 41.7254789,
  "lon": 20.6417169,
  "tags": {
    "tourism": "picnic_site"
  }
},
{
  "type": "node",
  "id": 3695988841,
  "lat": 41.9664768,
  "lon": 22.7729986,
  "tags": {
    "name": "Музеј на град Делчево",
    "name:en": "City Museum",
    "tourism": "museum"
  }
},
{
  "type": "node",
  "id": 3699885077,
  "lat": 41.9670756,
  "lon": 21.3880810,
  "tags": {
    "tourism": "viewpoint"
  }
},
{
  "type": "node",
  "id": 3712250373,
  "lat": 41.9945457,
  "lon": 21.4417760,
  "tags": {
    "addr:housenumber": "38",
    "addr:street": "Кеј 13 Ноември",
    "name": "Hotel Kej",
    "tourism": "hotel"
  }
},
{
  "type": "node",
  "id": 3713662739,
  "lat": 41.9952169,
  "lon": 21.4261530,
  "tags": {
    "artwork_type": "statue",
    "historic": "memorial",
    "memorial": "statue",
    "name": "Josip Broz Tito",
    "subject:wikidata": "Q9161",
    "tourism": "artwork"
  }
},
{
  "type": "node",
  "id": 3772116742,
  "lat": 41.0148316,
  "lon": 20.8457874,
  "tags": {
    "information": "guidepost",
    "tourism": "information"
  }
},
{
  "type": "node",
  "id": 3772116743,
  "lat": 41.0054210,
  "lon": 20.8522826,
  "tags": {
    "information": "guidepost",
    "tourism": "information"
  }
},
{
  "type": "node",
  "id": 3772116744,
  "lat": 41.0030816,
  "lon": 20.8527945,
  "tags": {
    "information": "guidepost",
    "tourism": "information"
  }
},
{
  "type": "node",
  "id": 3772116749,
  "lat": 40.9796089,
  "lon": 20.8621903,
  "tags": {
    "information": "guidepost",
    "tourism": "information"
  }
},
{
  "type": "node",
  "id": 3826400406,
  "lat": 41.1121098,
  "lon": 20.8016881,
  "tags": {
    "name": "Ривиера",
    "name:en": "Riviera",
    "tourism": "hotel"
  }
},
{
  "type": "node",
  "id": 3826400420,
  "lat": 41.1099144,
  "lon": 20.8046742,
  "tags": {
    "name": "Сити Палас",
    "name:en": "City Palace",
    "tourism": "hotel"
  }
},
{
  "type": "node",
  "id": 3830722846,
  "lat": 41.9186690,
  "lon": 22.4118474,
  "tags": {
    "name": "Ледер",
    "name:en": "Leder",
    "tourism": "hotel",
    "website": "http://hotelimakedonija.com.mk/mk/Hotel/82/Hotel-Leder-Kocani"
  }
},
{
  "type": "node",
  "id": 3832290369,
  "lat": 42.0020489,
  "lon": 21.4401680,
  "tags": {
    "addr:housenumber": "бб",
    "addr:street": "Булевар Крсте Мисирков",
    "name": "Султан",
    "name:en": "Sultan",
    "tourism": "hotel"
  }
},
{
  "type": "node",
  "id": 3832290373,
  "lat": 42.0021398,
  "lon": 21.4401529,
  "tags": {
    "addr:housenumber": "13",
    "addr:street": "Булевар Крсте Мисирков",
    "name": "Голд",
    "name:en": "Gold",
    "tourism": "hotel",
    "website": "https://www.hotelgold.mk/"
  }
},
{
  "type": "node",
  "id": 3832340805,
  "lat": 42.0022531,
  "lon": 21.4389410,
  "tags": {
    "addr:street": "76",
    "name": "Клан",
    "name:en": "Klan",
    "tourism": "hotel",
    "website": "http://hotelimakedonija.com.mk/mk/Hotel/42/Hotel-Klan-Skopje"
  }
},
{
  "type": "node",
  "id": 3832349185,
  "lat": 41.9771948,
  "lon": 21.3743518,
  "tags": {
    "name": "Апартмани Пантелејмон",
    "name:en": "Apartments Pantelejmon",
    "tourism": "hotel",
    "website": "http://hotelimakedonija.com.mk/mk/Hotel/85/Apartments-Pantelejmon-Skopje"
  }
},
{
  "type": "node",
  "id": 3832352210,
  "lat": 42.0310065,
  "lon": 21.4045298,
  "tags": {
    "int_name": "Luksor",
    "name": "Луксор",
    "name:en": "Luxor",
    "name:mk": "hotel luxury",
    "tourism": "hotel",
    "website": "http://hotelimakedonija.com.mk/en/Hotel/86/Hotel-Luxor-Skopje"
  }
},
{
  "type": "node",
  "id": 3832475969,
  "lat": 41.9431048,
  "lon": 21.6053588,
  "tags": {
    "name": "Ливија",
    "name:en": "Livija",
    "tourism": "motel",
    "website": "http://hotelimakedonija.com.mk/mk/Hotel/124/Motel-Livija-Skopje"
  }
},
{
  "type": "node",
  "id": 3832480726,
  "lat": 42.0051439,
  "lon": 21.4160939,
  "tags": {
    "addr:housenumber": "27",
    "addr:street": "Андон Дуков",
    "name": "Скопје",
    "name:en": "Skopje",
    "tourism": "hotel",
    "website": "http://hotelimakedonija.com.mk/mk/Hotel/125/Hotel-Skopje-Skopje"
  }
},
{
  "type": "node",
  "id": 3832493016,
  "lat": 42.0073634,
  "lon": 21.4871868,
  "tags": {
    "name": "Hunter’s Lodge “Kamnik”",
    "name:en": "Hunter’s Lodge “Kamnik”",
    "tourism": "hotel",
    "website": "http://www.kamnik.com.mk/"
  }
},
{
  "type": "node",
  "id": 3832600285,
  "lat": 42.0153336,
  "lon": 21.4079869,
  "tags": {
    "name": "Вергина",
    "name:en": "Vergina",
    "tourism": "hotel",
    "website": "http://www.hotelvergina.com/"
  }
},
{
  "type": "node",
  "id": 3832632324,
  "lat": 41.9870966,
  "lon": 21.4201316,
  "tags": {
    "addr:housenumber": "28",
    "addr:street": "Белградска",
    "name": "Тасино Чешмиче",
    "name:en": "Tasino Cheshmiche",
    "tourism": "hotel"
  }
},
{
  "type": "node",
  "id": 3925465176,
  "lat": 42.0477085,
  "lon": 21.3897191,
  "tags": {
    "name": "Motel Villa",
    "stars": "1",
    "tourism": "motel"
  }
},
{
  "type": "node",
  "id": 3932002649,
  "lat": 42.0424822,
  "lon": 21.4115678,
  "tags": {
    "description": "hotel resto",
    "name": "New Star",
    "tourism": "hotel"
  }
},
{
  "type": "node",
  "id": 3951819344,
  "lat": 41.9683238,
  "lon": 21.4318726,
  "tags": {
    "tourism": "viewpoint"
  }
},
{
  "type": "node",
  "id": 3951819563,
  "lat": 41.9716954,
  "lon": 21.4231705,
  "tags": {
    "tourism": "viewpoint"
  }
},
{
  "type": "node",
  "id": 4018154543,
  "lat": 42.1557271,
  "lon": 21.4466747,
  "tags": {
    "tourism": "viewpoint"
  }
},
{
  "type": "node",
  "id": 4018198519,
  "lat": 42.1772139,
  "lon": 21.4394721,
  "tags": {
    "tourism": "viewpoint"
  }
},
{
  "type": "node",
  "id": 4059966727,
  "lat": 41.1192679,
  "lon": 20.7845353,
  "tags": {
    "name": "Мизо",
    "name:en": "Mizo",
    "tourism": "hotel"
  }
},
{
  "type": "node",
  "id": 4064759493,
  "lat": 42.0758863,
  "lon": 22.1831257,
  "tags": {
    "addr:city": "Кратово",
    "amenity": "place_of_worship",
    "denomination": "orthodox",
    "int_name": "Sv. Jovan Krstitel",
    "name": "Св. Јован Крстител",
    "name:en": "St. John the Baptist",
    "religion": "christian",
    "tourism": "attraction"
  }
},
{
  "type": "node",
  "id": 4124437189,
  "lat": 40.9959098,
  "lon": 20.7981425,
  "tags": {
    "name": "Bay of Bones Viewpoint",
    "name:mk": "видиковец на Заливот на Коските",
    "tourism": "viewpoint"
  }
},
{
  "type": "node",
  "id": 4128156209,
  "lat": 41.9977079,
  "lon": 21.4339766,
  "tags": {
    "artwork_type": "statue",
    "historic": "memorial",
    "inscription": "Св. Кирил и Методиј",
    "int_name": "Sv. Kiril i Metodi",
    "memorial": "statue",
    "name": "Св. Кирил и Методиј",
    "name:de": "Kyrill und Method",
    "name:en": "Saints Cyril and Methodius",
    "subject:wikidata": "Q239925",
    "subject:wikipedia": "mk:Св. Кирил и Методиј",
    "tourism": "artwork"
  }
},
{
  "type": "node",
  "id": 4128156210,
  "lat": 41.9975624,
  "lon": 21.4341509,
  "tags": {
    "artwork_type": "statue",
    "historic": "memorial",
    "inscription": "Св. Климент Охридски и Наум Охридски Чудотворец",
    "memorial": "statue",
    "name": "Св. Климент Охридски и Наум Охридски Чудотворец",
    "name:en": "Saints Clement of Ohrid and Naum",
    "tourism": "artwork",
    "wikipedia": "mk:Свети Климент Охридски;mk:Свети Наум Охридски Чудотворец"
  }
},
{
  "type": "node",
  "id": 4149143991,
  "lat": 41.9953917,
  "lon": 21.4313414,
  "tags": {
    "addr:postcode": "1000",
    "artist_name": "Димитар Филиповски",
    "artwork_type": "statue",
    "historic": "memorial",
    "inscription": "Цар Самоил",
    "memorial": "statue",
    "name": "Цар Самоил",
    "name:de": "Zar Samuil",
    "name:en": "Tsar Samuel",
    "start_date": "28.06.2011",
    "tourism": "artwork",
    "wikidata": "Q12910631",
    "wikimedia_commons": "Category:Samuel's Monument (Skopje)",
    "wikipedia": "mk:Споменик на Цар Самоил (Скопје)"
  }
},
{
  "type": "node",
  "id": 4154122110,
  "lat": 41.2257975,
  "lon": 21.4316498,
  "tags": {
    "artwork_type": "bust",
    "material": "marble",
    "name": "Круме Волнароски-Коља",
    "name:en": "Krume Volnaroski-Kolja",
    "tourism": "artwork"
  }
},
{
  "type": "node",
  "id": 4161113452,
  "lat": 41.9964949,
  "lon": 21.4321474,
  "tags": {
    "artwork_type": "statue",
    "historic": "memorial",
    "inscription": "Даме Груев",
    "memorial": "statue",
    "name": "Даме Груев",
    "name:de": "Dame Gruew",
    "name:en": "Dame Gruev",
    "name:fr": "Damé Grouev",
    "name:mk": "Даме Груев",
    "name:sr": "Даме Груев",
    "subject:wikidata": "Q983917",
    "subject:wikipedia": "mk:Даме Груев",
    "tourism": "artwork"
  }
},
{
  "type": "node",
  "id": 4161113453,
  "lat": 41.9968799,
  "lon": 21.4323054,
  "tags": {
    "artist_name": "Роза Павлеска",
    "artwork_type": "statue",
    "historic": "memorial",
    "inscription": "Јустинијан I",
    "int_name": "Justinian I.",
    "memorial": "statue",
    "name": "Јустинијан I",
    "name:de": "Justinian I.",
    "name:en": "Justinian I",
    "name:fr": "Justinien Ier",
    "name:grc": "Ἰουστινιανός Α'",
    "start_date": "16.06.2011",
    "tourism": "artwork",
    "wikidata": "Q12910626",
    "wikimedia_commons": "Category:Monument of Iustinianus I (Skopje)",
    "wikipedia": "mk:Споменик на Јустинијан I"
  }
},
{
  "type": "node",
  "id": 4161249330,
  "lat": 41.9979046,
  "lon": 21.4344182,
  "tags": {
    "artwork_type": "statue",
    "historic": "memorial",
    "inscription": "Олимпија",
    "memorial": "statue",
    "name": "Олимпија",
    "name:de": "Olympias von Epirus",
    "name:en": "Olympias",
    "subject:wikidata": "Q223134",
    "subject:wikipedia": "mk:Олимпија",
    "tourism": "artwork"
  }
},
{
  "type": "node",
  "id": 4167839093,
  "lat": 41.1114353,
  "lon": 20.7942190,
  "tags": {
    "addr:city": "Ohrid",
    "addr:housenumber": "4",
    "addr:postcode": "6000",
    "addr:street": "Ilindenska",
    "brand": "Bandzo's",
    "email": "ar.ohrid@gmail.com",
    "guest_house": "guest_house",
    "internet_access": "wlan",
    "internet_access:fee": "no",
    "name": "Апартмани \"Kрај eзеро\", Охрид",
    "name:en": "\"By the Lake\" apartments, Ohrid",
    "opening_hours": "24/7",
    "operator": "Georgi Piruze",
    "phone": "+38970550590",
    "rooms": "4",
    "smoking": "outside",
    "stars": "2",
    "tourism": "guest_house",
    "website": "https://sites.google.com/site/arohrid"
  }
},
{
  "type": "node",
  "id": 4177853091,
  "lat": 41.7944152,
  "lon": 20.9115610,
  "tags": {
    "addr:street": "Ul. Mladen Grujoski 14",
    "internet_access": "wlan",
    "name": "Hotel Elita",
    "opening_hours": "24/7",
    "phone": "042215365",
    "tourism": "hotel",
    "website": "https://m.facebook.com/profile.php?id=295222203829948"
  }
},
{
  "type": "node",
  "id": 4177951748,
  "lat": 41.7943804,
  "lon": 20.9115723,
  "tags": {
    "addr:street": "Ul. Mladen Grujeski 14",
    "internet_access": "wlan",
    "name": "Elita",
    "opening_hours": "24/7",
    "phone": "042215365",
    "tourism": "hotel"
  }
},
{
  "type": "node",
  "id": 4178297510,
  "lat": 41.9901385,
  "lon": 21.4061845,
  "tags": {
    "name": "Арс",
    "tourism": "hostel"
  }
},
{
  "type": "node",
  "id": 4180539742,
  "lat": 41.1143378,
  "lon": 20.7952385,
  "tags": {
    "int_name": "Icon Gallery",
    "name": "Галерија на икони",
    "name:en": "Icon Gallery",
    "name:fr": "Pinacothèque des icônes d’Ohrid",
    "name:pl": "Wystawa Ikon",
    "opening_hours": "Tu-Su 09:00-14:00",
    "tourism": "gallery"
  }
},
{
  "type": "node",
  "id": 4183670873,
  "lat": 41.9814251,
  "lon": 21.4208827,
  "tags": {
    "information": "map",
    "tourism": "information"
  }
},
{
  "type": "node",
  "id": 4183670874,
  "lat": 41.9834643,
  "lon": 21.4186280,
  "tags": {
    "board_type": "sport",
    "check_date": "2021-11-19",
    "information": "board",
    "tourism": "information"
  }
},
{
  "type": "node",
  "id": 4183670877,
  "lat": 41.9834599,
  "lon": 21.4186214,
  "tags": {
    "check_date": "2021-11-19",
    "information": "map",
    "tourism": "information"
  }
},
{
  "type": "node",
  "id": 4183705816,
  "lat": 41.9750527,
  "lon": 21.4091064,
  "tags": {
    "information": "board",
    "tourism": "information"
  }
},
{
  "type": "node",
  "id": 4183705817,
  "lat": 41.9750656,
  "lon": 21.4090890,
  "tags": {
    "information": "map",
    "tourism": "information"
  }
},
{
  "type": "node",
  "id": 4183728636,
  "lat": 41.9713336,
  "lon": 21.4038734,
  "tags": {
    "tourism": "viewpoint"
  }
},
{
  "type": "node",
  "id": 4183757212,
  "lat": 41.9655580,
  "lon": 21.3951230,
  "tags": {
    "tourism": "viewpoint"
  }
},
{
  "type": "node",
  "id": 4183757215,
  "lat": 41.9645306,
  "lon": 21.3939229,
  "tags": {
    "covered": "yes",
    "tourism": "picnic_site"
  }
},
{
  "type": "node",
  "id": 4183757216,
  "lat": 41.9646013,
  "lon": 21.3932444,
  "tags": {
    "covered": "yes",
    "tourism": "picnic_site"
  }
},
{
  "type": "node",
  "id": 4185232995,
  "lat": 41.4042891,
  "lon": 22.2894661,
  "tags": {
    "tourism": "picnic_site"
  }
},
{
  "type": "node",
  "id": 4190204393,
  "lat": 41.8410032,
  "lon": 20.9899080,
  "tags": {
    "name": "LastraProjekt",
    "tourism": "viewpoint"
  }
},
{
  "type": "node",
  "id": 4206877090,
  "lat": 41.1130805,
  "lon": 20.8121042,
  "tags": {
    "addr:housenumber": "14",
    "addr:street": "Лазо Трпоски",
    "name": "House Nativa",
    "tourism": "guest_house"
  }
},
{
  "type": "node",
  "id": 4210813497,
  "lat": 41.6775801,
  "lon": 20.7742112,
  "tags": {
    "name": "Villa Magjike",
    "tourism": "viewpoint"
  }
},
{
  "type": "node",
  "id": 4210858997,
  "lat": 42.0112718,
  "lon": 21.3725440,
  "tags": {
    "addr:housenumber": "15",
    "addr:street": "Фјодор Достоевски",
    "internet_access": "wlan",
    "name": "Feng Shui Apartments",
    "tourism": "guest_house"
  }
},
{
  "type": "node",
  "id": 4225391392,
  "lat": 41.9968442,
  "lon": 21.4157891,
  "tags": {
    "addr:housenumber": "3",
    "addr:street": "9 Мај",
    "alt_name": "Hotel Vlaho",
    "int_name": "Vlaho",
    "internet_access": "wlan",
    "name": "Влахо",
    "opening_hours": "24/7",
    "phone": "+38926092301",
    "tourism": "hotel"
  }
},
{
  "type": "node",
  "id": 4239751190,
  "lat": 41.0868845,
  "lon": 20.8276341,
  "tags": {
    "name": "Velestovo House ",
    "tourism": "guest_house"
  }
},
{
  "type": "node",
  "id": 4253065397,
  "lat": 41.1212560,
  "lon": 20.8132260,
  "tags": {
    "addr:housenumber": "96",
    "addr:street": "Питу Гули",
    "internet_access": "wlan",
    "name": "Hostel Valentin ",
    "tourism": "hostel"
  }
},
{
  "type": "node",
  "id": 4258423490,
  "lat": 41.1791568,
  "lon": 22.7225812,
  "tags": {
    "addr:housenumber": "9",
    "addr:postcode": "1487",
    "addr:street": "Илинденска",
    "name": "Guest House Stefani",
    "phone": "+38978218662",
    "tourism": "guest_house"
  }
},
{
  "type": "node",
  "id": 4258672490,
  "lat": 41.0225732,
  "lon": 21.3127892,
  "tags": {
    "name": "elena",
    "tourism": "artwork"
  }
},
{
  "type": "node",
  "id": 4263404362,
  "lat": 41.0728225,
  "lon": 20.8532714,
  "tags": {
    "tourism": "information"
  }
},
{
  "type": "node",
  "id": 4263405261,
  "lat": 41.0756041,
  "lon": 20.8497331,
  "tags": {
    "tourism": "information"
  }
},
{
  "type": "node",
  "id": 4263405262,
  "lat": 41.0725571,
  "lon": 20.8646227,
  "tags": {
    "tourism": "information"
  }
},
{
  "type": "node",
  "id": 4264164991,
  "lat": 41.1122944,
  "lon": 20.8133442,
  "tags": {
    "addr:street": "Мирче Ацев",
    "name": "Pine House Apartment",
    "tourism": "motel"
  }
},
{
  "type": "node",
  "id": 4271160712,
  "lat": 41.9936684,
  "lon": 21.4317487,
  "tags": {
    "historic": "monument",
    "name": "Бегова кула",
    "name:de": "Turm des Bey",
    "name:en": "Bey's Tower",
    "name:fr": "Tour du Bey",
    "name:tr": "Bey kulesi",
    "tourism": "attraction"
  }
},
{
  "type": "node",
  "id": 4276466090,
  "lat": 41.1124995,
  "lon": 20.7988026,
  "tags": {
    "name": "Villa Square Ohrid",
    "tourism": "apartment"
  }
},
{
  "type": "node",
  "id": 4276466091,
  "lat": 41.1125700,
  "lon": 20.7985193,
  "tags": {
    "name": "Villa Tabana",
    "tourism": "apartment"
  }
},
{
  "type": "node",
  "id": 4276466092,
  "lat": 41.1125176,
  "lon": 20.7982936,
  "tags": {
    "name": "Villa Harmony",
    "tourism": "apartment"
  }
},
{
  "type": "node",
  "id": 4277058964,
  "lat": 41.1125930,
  "lon": 20.7980760,
  "tags": {
    "name": "Villa De Lago",
    "tourism": "apartment"
  }
},
{
  "type": "node",
  "id": 4277058965,
  "lat": 41.1125227,
  "lon": 20.7978445,
  "tags": {
    "name": "Costa House",
    "tourism": "apartment"
  }
},
{
  "type": "node",
  "id": 4277058966,
  "lat": 41.1118870,
  "lon": 20.7974658,
  "tags": {
    "int_name": "Villa St.Nicholas",
    "name": "Вила Свети Никола",
    "tourism": "hotel"
  }
},
{
  "type": "node",
  "id": 4278125896,
  "lat": 41.1216886,
  "lon": 20.7819966,
  "tags": {
    "name": "Maja, Anja, Zoko Relax",
    "tourism": "guest_house"
  }
},
{
  "type": "node",
  "id": 4278652891,
  "lat": 41.0522578,
  "lon": 20.8124120,
  "tags": {
    "name": "Villa Minami",
    "tourism": "guest_house",
    "website": "http://villaminami.com"
  }
},
{
  "type": "node",
  "id": 4281387290,
  "lat": 42.0186038,
  "lon": 21.5146494,
  "tags": {
    "name": "Strima Residence",
    "operator": "Florim Murtezani",
    "tourism": "guest_house"
  }
},
{
  "type": "node",
  "id": 4281430790,
  "lat": 41.9909393,
  "lon": 21.4445633,
  "tags": {
    "information": "guidepost",
    "name": "Bureau for tourism and infirmation",
    "tourism": "information"
  }
},
{
  "type": "node",
  "id": 4281626594,
  "lat": 41.1123960,
  "lon": 20.7971180,
  "tags": {
    "addr:housenumber": "34",
    "addr:postcode": "6000",
    "addr:street": "Цар Самоил",
    "int_name": "Marija Apartments",
    "internet_access": "wlan",
    "name": "Апартмани Марија",
    "phone": "+389 75 285 609",
    "tourism": "hotel"
  }
},
{
  "type": "node",
  "id": 4293628074,
  "lat": 41.8894000,
  "lon": 21.2122779,
  "tags": {
    "tourism": "viewpoint"
  }
},
{
  "type": "node",
  "id": 4293628078,
  "lat": 41.8895907,
  "lon": 21.2263363,
  "tags": {
    "tourism": "viewpoint"
  }
},
{
  "type": "node",
  "id": 4307731896,
  "lat": 41.1787630,
  "lon": 20.6791191,
  "tags": {
    "addr:street": "KEJ 8 НОЕМВРИ",
    "internet_access": "wlan",
    "name": "Vila Perla",
    "opening_hours": "24/7",
    "tourism": "hotel"
  }
},
{
  "type": "node",
  "id": 4315293789,
  "lat": 41.9804322,
  "lon": 21.4405032,
  "tags": {
    "tourism": "hotel"
  }
},
{
  "type": "node",
  "id": 4318426191,
  "lat": 41.9807340,
  "lon": 21.4383615,
  "tags": {
    "name": "Студентски дом Пелагонија",
    "tourism": "guest_house"
  }
},
{
  "type": "node",
  "id": 4348448089,
  "lat": 41.8416059,
  "lon": 20.9887800,
  "tags": {
    "name": "Lali Trans",
    "tourism": "viewpoint"
  }
},
{
  "type": "node",
  "id": 4349749390,
  "lat": 41.1035910,
  "lon": 20.8572990,
  "tags": {
    "tourism": "viewpoint"
  }
},
{
  "type": "node",
  "id": 4353713189,
  "lat": 42.1121852,
  "lon": 21.6201130,
  "tags": {
    "tourism": "motel"
  }
},
{
  "type": "node",
  "id": 4356252389,
  "lat": 41.7380866,
  "lon": 22.1877916,
  "tags": {
    "tourism": "viewpoint"
  }
},
{
  "type": "node",
  "id": 4358692689,
  "lat": 41.9945740,
  "lon": 21.4417693,
  "tags": {
    "internet_access": "wlan",
    "name": "kej",
    "tourism": "hostel"
  }
},
{
  "type": "node",
  "id": 4360780190,
  "lat": 41.6818509,
  "lon": 22.1889272,
  "tags": {
    "tourism": "picnic_site"
  }
},
{
  "type": "node",
  "id": 4360780192,
  "lat": 41.7360228,
  "lon": 22.1913419,
  "tags": {
    "tourism": "information"
  }
},
{
  "type": "node",
  "id": 4360784490,
  "lat": 41.7330582,
  "lon": 22.1768285,
  "tags": {
    "addr:housenumber": "0",
    "addr:postcode": "2000",
    "addr:street": "Кежовица",
    "leisure": "sauna",
    "name": "Бања \"Ќежовица\"",
    "name:en": "Spa-Center \"Kezovica\"",
    "name:mk": "Бања \"Ќежовица\"",
    "opening_hours": "Mo-Su 08:00-20:00",
    "tourism": "attraction",
    "wikidata": "Q3396539",
    "wikipedia": "en:Kežovica"
  }
},
{
  "type": "node",
  "id": 4360802895,
  "lat": 41.7346831,
  "lon": 22.1848530,
  "tags": {
    "tourism": "viewpoint"
  }
},
{
  "type": "node",
  "id": 4367466190,
  "lat": 41.9951281,
  "lon": 21.4312446,
  "tags": {
    "addr:city": "Скопје",
    "addr:housenumber": "22",
    "addr:postcode": "1000",
    "addr:street": "Македонија",
    "cable tv": "yes",
    "internet_access": "yes",
    "internet_access:fee": "no",
    "kitchen": "fully equipped",
    "name": "ARSS Apartment Skopje Main Square",
    "phone": "+38970332285",
    "rooms": "3",
    "smoking": "outside",
    "tourism": "guest_house",
    "website": "https://www.facebook.com/skopjeapartments"
  }
},
{
  "type": "node",
  "id": 4380047289,
  "lat": 42.0295518,
  "lon": 21.4411896,
  "tags": {
    "tourism": "motel"
  }
},
{
  "type": "node",
  "id": 4385116690,
  "lat": 41.1423882,
  "lon": 20.7564797,
  "tags": {
    "name:cs": "Free camping",
    "name:nl": "Camp Andon Dukov",
    "tourism": "camp_site"
  }
},
{
  "type": "node",
  "id": 4403421489,
  "lat": 42.0208797,
  "lon": 21.5102101,
  "tags": {
    "addr:street": "Алија Авдовиќ",
    "name": "Dullo Residence",
    "name:mk": "Dullo Residence",
    "tourism": "guest_house"
  }
},
{
  "type": "node",
  "id": 4405643790,
  "lat": 41.7038981,
  "lon": 20.7598904,
  "tags": {
    "internet_access": "wlan",
    "name": "Одмаралиште ЕЛЕМ-Маврови Анови",
    "name:de": "Ski hut gorica",
    "tourism": "hostel"
  }
},
{
  "type": "node",
  "id": 4407172493,
  "lat": 41.6518802,
  "lon": 20.7148683,
  "tags": {
    "tourism": "viewpoint"
  }
},
{
  "type": "node",
  "id": 4407815504,
  "lat": 41.5939665,
  "lon": 20.6610803,
  "tags": {
    "tourism": "viewpoint"
  }
},
{
  "type": "node",
  "id": 4408735091,
  "lat": 41.7104859,
  "lon": 20.7623970,
  "tags": {
    "addr:city": "Маврови Анови",
    "addr:postcode": "1245",
    "addr:street": "Bela Voda,",
    "charge": "13-50",
    "description": "Mountain hut, hostel offering accommodation for adventures, climbing tours, ski touring tours and gear, hiking tours, multi day adventures and active retreats and packages. Breakfast and dinner is also available.",
    "ele": "1330",
    "email": "skihut.gorica@gmail.com",
    "fee": "yes",
    "guest_house": "hostel",
    "internet_access": "wlan",
    "internet_access:description": "Ski HUt Gorica (SharaKorab6 - password in case we are not at the hut -notify us)",
    "internet_access:fee": "no",
    "internet_access:password": "SharaKorab6",
    "internet_access:ssid": "Ski HUt Gorica",
    "name": "Ski Hut GORICA",
    "name:en": "Ski Hut GORICA",
    "note": "Check in time 17.30 - 21.30 /for check in out of this hours please contact us via WhatsApp on the phone provided.",
    "operator": "MavrovoOutdoors",
    "payment:cash": "yes",
    "phone": "+38971555185",
    "rooms": "4",
    "tourism": "hostel",
    "website": "http://skihutgorica.com"
  }
},
{
  "type": "node",
  "id": 4411019689,
  "lat": 41.1791166,
  "lon": 22.7269756,
  "tags": {
    "tourism": "camp_site"
  }
},
{
  "type": "node",
  "id": 4411126494,
  "lat": 41.0302025,
  "lon": 21.3347596,
  "tags": {
    "artwork_type": "statue",
    "name": "Статуа Филип II",
    "name:en": "Philip II Statue",
    "name:mk": "Filip Vtori Statua",
    "tourism": "artwork"
  }
},
{
  "type": "node",
  "id": 4413612189,
  "lat": 41.9959432,
  "lon": 21.4367853,
  "tags": {
    "name": "Палата „Борис Сарафов“",
    "name:en": "Boris Sarafov Palace",
    "tourism": "attraction"
  }
},
{
  "type": "node",
  "id": 4414830192,
  "lat": 41.1386060,
  "lon": 22.5523332,
  "tags": {
    "addr:postcode": "1480",
    "addr:street": "Goce Delchev 92",
    "email": "taksiacko@gmail.com",
    "name": "Такси Ацко",
    "name:en": "Taxi Acko",
    "name:mk": "Такси Ацко",
    "opening_hours": "24/7",
    "phone": "0038970867147",
    "tourism": "information"
  }
},
{
  "type": "node",
  "id": 4426238189,
  "lat": 41.7354579,
  "lon": 22.1991113,
  "tags": {
    "tourism": "information"
  }
},
{
  "type": "node",
  "id": 4430422476,
  "lat": 41.9569634,
  "lon": 21.3088156,
  "tags": {
    "name:en": "Beginning of the path to the cross (path not in osm)",
    "tourism": "information"
  }
},
{
  "type": "node",
  "id": 4435035191,
  "lat": 41.1606721,
  "lon": 20.6503978,
  "tags": {
    "addr:postcode": "6330",
    "addr:street": "Kalista",
    "email": "campingsunrise.eu@gmail.com",
    "internet_access": "wlan",
    "name": "Sunrise",
    "opening_hours": "24/7",
    "operator": "Dutch Alliance",
    "phone": "+38972586966",
    "tourism": "camp_site",
    "website": "https://www.campingsunrise.eu/"
  }
},
{
  "type": "node",
  "id": 4437622043,
  "lat": 41.1411114,
  "lon": 22.5038741,
  "tags": {
    "name": "Apollonia Hotel",
    "operator": "Apollonia Casino",
    "tourism": "hotel"
  }
},
{
  "type": "node",
  "id": 4438921139,
  "lat": 42.0191769,
  "lon": 21.3943528,
  "tags": {
    "tourism": "viewpoint"
  }
},
{
  "type": "node",
  "id": 4440746389,
  "lat": 41.9930933,
  "lon": 21.4298952,
  "tags": {
    "artwork_type": "statue",
    "name": "Wall Street Bull",
    "name:de": "Bronzedenkmal des Großen Bullen",
    "name:en": "Wall Street Bull",
    "source": "survey",
    "tourism": "artwork"
  }
},
{
  "type": "node",
  "id": 4453464490,
  "lat": 41.1186511,
  "lon": 20.8136777,
  "tags": {
    "name:en": "villa magdalena",
    "tourism": "hotel"
  }
},
{
  "type": "node",
  "id": 4471993692,
  "lat": 41.1229582,
  "lon": 20.8253145,
  "tags": {
    "name": "Doma",
    "tourism": "guest_house"
  }
},
{
  "type": "node",
  "id": 4485692539,
  "lat": 41.1132344,
  "lon": 20.7907081,
  "tags": {
    "name": "Базилика",
    "name:en": "Basilica",
    "tourism": "attraction"
  }
},
{
  "type": "node",
  "id": 4485860353,
  "lat": 40.9540034,
  "lon": 20.8125180,
  "tags": {
    "information": "board",
    "tourism": "information"
  }
},
{
  "type": "node",
  "id": 4489456004,
  "lat": 41.5570561,
  "lon": 20.6173436,
  "tags": {
    "information": "board",
    "tourism": "information"
  }
},
{
  "type": "node",
  "id": 4489533858,
  "lat": 41.6030428,
  "lon": 20.5950118,
  "tags": {
    "name": "Дуф",
    "name:en": "Duf",
    "tourism": "attraction",
    "waterway": "waterfall"
  }
},
{
  "type": "node",
  "id": 4496493417,
  "lat": 41.9939913,
  "lon": 21.0276195,
  "tags": {
    "name": "Петрол Компани",
    "name:en": "Hotel Petrol Company",
    "phone": "+389 44 378 100",
    "tourism": "hotel"
  }
},
{
  "type": "node",
  "id": 4502463693,
  "lat": 41.9236123,
  "lon": 20.9166613,
  "tags": {
    "name": "Park",
    "name:en": "Park",
    "name:mk": "Park",
    "name:sq": "Park",
    "tourism": "attraction"
  }
},
{
  "type": "node",
  "id": 4512398449,
  "lat": 42.2632133,
  "lon": 21.9526180,
  "tags": {
    "name": "Platform A",
    "tourism": "viewpoint"
  }
},
{
  "type": "node",
  "id": 4512398450,
  "lat": 42.2633296,
  "lon": 21.9533467,
  "tags": {
    "name": "Platform B",
    "tourism": "viewpoint"
  }
},
{
  "type": "node",
  "id": 4512398451,
  "lat": 42.2630995,
  "lon": 21.9524936,
  "tags": {
    "name": "Platform C",
    "tourism": "viewpoint"
  }
},
{
  "type": "node",
  "id": 4512398452,
  "lat": 42.2635002,
  "lon": 21.9529791,
  "tags": {
    "name": "Platform D",
    "tourism": "viewpoint"
  }
},
{
  "type": "node",
  "id": 4512399709,
  "lat": 42.2630449,
  "lon": 21.9521624,
  "tags": {
    "tourism": "viewpoint"
  }
},
{
  "type": "node",
  "id": 4512399865,
  "lat": 42.2637118,
  "lon": 21.9537500,
  "tags": {
    "name": "Ограденица",
    "name:en": "Sanctuary Wall E",
    "tourism": "viewpoint"
  }
},
{
  "type": "node",
  "id": 4524189289,
  "lat": 42.1373916,
  "lon": 21.7042207,
  "tags": {
    "addr:postcode": "1300",
    "addr:street": "Србо Томовиќ",
    "internet_access": "wlan",
    "name": "adra home",
    "name:en": "adra home",
    "name:mk": "adra home",
    "tourism": "guest_house"
  }
},
{
  "type": "node",
  "id": 4540759892,
  "lat": 41.9816082,
  "lon": 21.4215251,
  "tags": {
    "addr:postcode": "1000",
    "addr:street": "Тодор Александров",
    "name": "Хотел Скала",
    "name:en": "Skala Hotel",
    "tourism": "hotel"
  }
},
{
  "type": "node",
  "id": 4551986671,
  "lat": 41.1959384,
  "lon": 22.7164555,
  "tags": {
    "name": "Плажа Карач",
    "tourism": "attraction"
  }
},
{
  "type": "node",
  "id": 4553851295,
  "lat": 41.6819113,
  "lon": 21.2773020,
  "tags": {
    "name": "Белица -> Бегово",
    "name:en": "Belica towards Begovo",
    "name:mk": "Белица -> Бегово",
    "tourism": "viewpoint"
  }
},
{
  "type": "node",
  "id": 4580254502,
  "lat": 41.7421767,
  "lon": 22.1990976,
  "tags": {
    "addr:housenumber": "46",
    "addr:postcode": "2000",
    "addr:street": "Широк Дол",
    "internet_access": "wlan",
    "name": "Ники",
    "name:en": "Niki",
    "name:mk": "Ники",
    "tourism": "guest_house"
  }
},
{
  "type": "node",
  "id": 4584405590,
  "lat": 41.7369271,
  "lon": 21.7908540,
  "tags": {
    "addr:housenumber": "6",
    "addr:street": "Лисец",
    "name": "Лисец",
    "name:en": "Lisec",
    "name:mk": "Лисец",
    "tourism": "guest_house"
  }
},
{
  "type": "node",
  "id": 4585716598,
  "lat": 41.5130946,
  "lon": 20.9663459,
  "tags": {
    "alt_name:mk": "Кичевско кале",
    "historic": "castle",
    "name": "Китино Кале",
    "name:en": "Kita Castle",
    "name:mk": "Китино Кале",
    "name:sq": "Kalaja Kërçovë",
    "tourism": "attraction"
  }
},
{
  "type": "node",
  "id": 4590983565,
  "lat": 42.1051656,
  "lon": 22.0555998,
  "tags": {
    "tourism": "viewpoint"
  }
},
{
  "type": "node",
  "id": 4610351504,
  "lat": 41.0312534,
  "lon": 20.8058338,
  "tags": {
    "email": "makacoski@yahoo.com",
    "internet_access": "wlan",
    "name": "Anmarin villa",
    "name:en": "Anmarin villa",
    "name:mk": "Anmarin villa",
    "phone": "070325056",
    "tourism": "guest_house",
    "website": "http://www.anmarin.com"
  }
},
{
  "type": "node",
  "id": 4634637265,
  "lat": 41.9904434,
  "lon": 21.4179475,
  "tags": {
    "addr:city": "Cкoпje",
    "addr:housenumber": "26",
    "addr:postcode": "1000",
    "addr:street": "Владимир Назор",
    "description": "contact: sakisandra130479@gmail.com  tel: +389 70 380169",
    "internet_access": "wlan",
    "name": "Apartments \"A\" - Апартмани \"А\"",
    "name_1": "Apartments A",
    "name_2": "Апартмани A",
    "operator": "Александра",
    "rooms": "5",
    "smoking": "isolated",
    "tourism": "apartment"
  }
},
{
  "type": "node",
  "id": 4680927493,
  "lat": 41.1150795,
  "lon": 20.8002326,
  "tags": {
    "name": "Atelje Farmakovski",
    "name:en": "Atelje Farmakovski",
    "name:mk": "Atelje Farmakovski",
    "tourism": "artwork"
  }
},
{
  "type": "node",
  "id": 4686742489,
  "lat": 42.0033332,
  "lon": 21.4424029,
  "tags": {
    "tourism": "motel"
  }
},
{
  "type": "node",
  "id": 4705276289,
  "lat": 41.9940942,
  "lon": 20.9622565,
  "tags": {
    "name:sq": "Forumi Rinor Islam",
    "tourism": "attraction"
  }
},
{
  "type": "node",
  "id": 4736396222,
  "lat": 41.0331948,
  "lon": 21.1977531,
  "tags": {
    "tourism": "picnic_site"
  }
},
{
  "type": "node",
  "id": 4741049668,
  "lat": 42.1906739,
  "lon": 22.3593935,
  "tags": {
    "name": "Vila Ana Marija",
    "tourism": "guest_house"
  }
},
{
  "type": "node",
  "id": 4743424057,
  "lat": 41.9225941,
  "lon": 21.5136242,
  "tags": {
    "tourism": "viewpoint"
  }
},